     3.03           OBSERVATION DATA    M: Mixed            RINEX VERSION / TYPE
RTKCONV demo5 b34e                      20211223 201955 UTC PGM / RUN BY / DATE 
format: RINEX                                               COMMENT             
log: C:\gps\data\cellphone\Google\train\2020-05-14-US-MTV-1\COMMENT             
SLAC                                                        MARKER NAME         
49523S001                                                   MARKER NUMBER       
                                                            MARKER TYPE         
                                                            OBSERVER / AGENCY   
5302K56635          TRIMBLE NETR9       5.42                REC # / TYPE / VERS 
0220369855          TRM59800.80     NONE                    ANT # / TYPE        
 -2703115.2660 -4291768.3440  3854247.9550                  APPROX POSITION XYZ 
        0.0000        0.0000        0.0000                  ANTENNA: DELTA H/E/N
G    6 C1C L1C S1C C5X L5X S5X                              SYS / # / OBS TYPES 
R    4 C1C L1C S1C C1P                                      SYS / # / OBS TYPES 
E    6 C1X L1X S1X C5X L5X S5X                              SYS / # / OBS TYPES 
  2020    05    14    22    00   00.0000000     GPS         TIME OF FIRST OBS   
  2020    05    14    23    00   00.0000000     GPS         TIME OF LAST OBS    
G L1C                                                       SYS / PHASE SHIFT   
G L5X  0.00000                                              SYS / PHASE SHIFT   
R L1C                                                       SYS / PHASE SHIFT   
E L1X  0.00000                                              SYS / PHASE SHIFT   
E L5X  0.00000                                              SYS / PHASE SHIFT   
  0                                                         GLONASS SLOT / FRQ #
 C1C    0.000 C1P    0.000 C2C    0.000 C2P    0.000        GLONASS COD/PHS/BIS 
                                                            END OF HEADER       
> 2020 05 14 22 00 00.0000000  0 23                     
R11  22231781.313 1 118799905.93317        43.100    22231781.355 1
G12  20199070.203 1 106146864.44618        52.000                                                  
G02  20908909.656 1 109877144.46018        50.900                                                  
R06  23728952.695 1 126622195.19915        33.300    23728949.629 1
R07  24349631.930 1 130345511.41615        31.500                  
R12  19351963.133 1 103374720.65018        51.800    19351962.934 1
R21  23559321.797 1 126070726.26516        38.800    23559320.813 1
G05  23452576.953 1 123244149.62717        42.300                                                  
R22  19911199.000 1 106287240.61118        50.500    19911197.727 1
R23  20924499.234 1 111931975.48718        48.000    20924498.609 1
G06  21994470.328 1 115581700.79617        47.600    21994480.176 1  86311126.34418        51.100  
G17  25651906.445 1 134801701.76816        36.900                                                  
R24  24181493.469 1 129309153.38715        35.300    24181492.742 1
G19  23778916.250 1 124959034.48216        38.600                                                  
G24  22809760.086 1 119866216.82317        43.700    22809770.176 1  89510474.04818        48.800  
R13  20777836.734 1 110952325.04315        34.700    20777835.477 1
G25  21610920.867 1 113566107.29017        47.600    21610931.695 1  84805978.49718        50.800  
G29  23674828.297 1 124412088.19516        41.300                                                  
E13  23391252.320 1 122921913.13818        49.500    23391256.422 1  91792386.17718        52.700  
E01  25593398.000 1 134494231.38218        48.400    25593402.438 1 100434023.71617        47.700  
E21  23440529.961 1 123180876.86118        53.700    23440534.898 1  91985769.07018        52.700  
E27  25598252.039 1 134519731.86717        46.800    25598258.410 1 100453072.63218        48.500  
E15  26678511.125 1 140196560.58116        41.100    26678518.121 1 104692281.94717        44.800  
> 2020 05 14 22 00 30.0000000  0 23                     
R11  22255259.031 1 118925364.121 7        42.000    22255258.809 1
G12  20194313.703 1 106121866.718 8        51.100                                                  
G02  20913990.797 1 109903845.310 8        51.500                                                  
R06  23721639.523 1 126583179.044 5        33.700    23721638.777 1
R07  24332035.688 1 130251331.82415        32.000                  
R12  19359502.719 1 103414994.504 8        51.800    19359502.285 1
R21  23578816.211 1 126175036.403 6        40.900    23578814.805 1
G05  23434375.547 1 123148504.533 7        42.900                                                  
R22  19921286.234 1 106341089.410 8        49.500    19921285.113 1
R23  20913032.781 1 111870633.069 8        48.200    20913031.320 1
G06  22009196.398 1 115659092.319 7        46.700    22009206.895 1  86368918.690 8        51.100  
G17  25665857.477 1 134875017.083 5        35.500                                                  
R24  24163156.484 1 129211115.223 5        35.800    24163158.883 1
G19  23795026.648 1 125043697.295 6        37.800                                                  
G24  22826165.438 1 119952429.541 7        42.500    22826176.117 1  89574853.623 8        48.900  
R13  20761960.141 1 110867544.956 5        34.200    20761958.703 1
G25  21596743.547 1 113491603.345 7        47.800    21596753.703 1  84750342.469 8        50.500  
G29  23660893.984 1 124338858.609 7        42.300                                                  
E13  23396814.953 1 122951144.837 8        50.000    23396819.211 1  91814215.046 8        52.600  
E01  25580838.484 1 134428230.211 8        48.300    25580842.664 1 100384737.161 7        47.100  
E21  23442040.445 1 123188813.555 8        52.900    23442045.156 1  91991695.808 8        52.800  
E27  25612771.688 1 134596034.621 7        46.700    25612778.234 1 100510051.924 7        47.700  
E15  26693252.258 1 140274032.710 6        39.700    26693260.367 1 104750134.479 7        44.900  
> 2020 05 14 22 01 00.0000000  0 22                     
R11  22278787.453 1 119051098.068 7        42.500    22278787.910 1
G12  20189639.000 1 106097301.626 8        52.000                                                  
G02  20919149.727 1 109930956.742 8        51.600                                                  
R06  23714439.031 1 126544763.224 5        33.200    23714439.188 1
R12  19367184.102 1 103456027.467 8        50.600    19367183.609 1
R21  23598295.102 1 126279272.077 6        41.600    23598293.754 1
G05  23416201.945 1 123052989.341 7        42.400                                                  
R22  19931435.242 1 106395259.773 8        50.200    19931433.781 1
R23  20901640.539 1 111809692.624 8        48.100    20901639.258 1
G06  22023984.625 1 115736804.709 7        46.700    22023995.352 1  86426950.654 8        51.100  
G17  25679801.852 1 134948299.278 6        36.800                                                  
R24  24144861.797 1 129113271.95215        31.100    24144860.703 1
G19  23811141.742 1 125128389.609 6        37.800                                                  
G24  22842615.172 1 120038872.064 7        43.100    22842626.008 1  89639404.810 8        49.200  
R13  20746188.742 1 110783319.955 5        34.800    20746186.078 1
G25  21582618.477 1 113417380.773 7        47.300    21582629.227 1  84694916.554 8        50.200  
G29  23646980.805 1 124265739.752 7        43.800                                                  
E13  23402425.070 1 122980624.859 8        49.300    23402428.965 1  91836229.353 8        52.600  
E01  25568315.953 1 134362423.637 7        47.900    25568320.152 1 100335595.896 7        47.800  
E21  23443621.750 1 123197124.018 8        52.800    23443626.652 1  91997901.678 8        52.700  
E27  25627332.633 1 134672550.330 7        46.700    25627338.598 1 100567190.250 8        48.400  
E15  26707998.547 1 140351518.340 6        40.700    26708006.203 1 104807997.054 7        44.900  
> 2020 05 14 22 01 30.0000000  0 23                     
R11  22302367.555 1 119177103.981 6        41.000    22302367.145 1
G12  20185046.492 1 106073170.308 8        52.400                                                  
G02  20924386.625 1 109958476.666 8        50.300                                                  
R06  23707356.891 1 126506949.884 5        32.200    23707353.418 1
R07  24296926.375 1 130063373.77415        32.800                  
R12  19375006.813 1 103497817.935 8        51.300    19375006.789 1
R21  23617757.641 1 126383431.603 6        41.100    23617757.352 1
G05  23398049.102 1 122957607.618 6        41.700                                                  
R22  19941642.984 1 106449748.568 8        50.100    19941641.137 1
R23  20890322.266 1 111749153.700 8        48.100    20890321.523 1
G06  22038833.203 1 115814835.034 7        47.000    22038844.555 1  86485220.040 8        51.500  
G17  25693740.438 1 135021547.814 6        36.000                                                  
R24  24126599.992 1 129015624.142 5        33.700    24126599.477 1
G19  23827263.758 1 125213110.235 6        37.800                                                  
G24  22859106.727 1 120125541.619 7        42.300    22859119.070 1  89704125.528 8        49.300  
R13  20730517.164 1 110699653.787 5        35.400    20730518.152 1
G25  21568548.281 1 113343441.397 8        48.100    21568558.941 1  84639702.103 8        50.200  
G29  23633087.609 1 124192730.941 7        44.500                                                  
E13  23408081.602 1 123010351.515 8        49.800    23408085.738 1  91858427.824 8        52.700  
E01  25555830.398 1 134296812.894 8        48.600    25555834.844 1 100286600.879 7        47.500  
E21  23445274.594 1 123205808.376 8        53.300    23445279.289 1  92004386.735 8        52.700  
E27  25641932.969 1 134749277.703 7        46.400    25641939.531 1 100624486.613 8        48.000  
E15  26722746.500 1 140429015.893 6        41.300    26722753.375 1 104865868.622 7        44.600  
> 2020 05 14 22 02 00.0000000  0 23                     
R11  22325999.039 1 119303378.673 7        42.700    22325998.957 1
G12  20180537.719 1 106049474.421 8        52.100                                                  
G02  20929700.625 1 109986403.717 8        50.000                                                  
R06  23700378.805 1 126469742.569 5        30.800    23700380.066 1
R07  24279410.805 1 129969575.260 5        32.200    24279409.270 1
R12  19382972.141 1 103540365.114 8        51.400    19382971.930 1
R21  23637209.273 1 126487513.748 6        39.000    23637207.918 1
G05  23379922.969 1 122862362.757 6        40.800                                                  
R22  19951908.516 1 106504552.993 8        49.400    19951907.277 1
R23  20879081.898 1 111689016.420 8        48.600    20879080.297 1
G06  22053742.227 1 115893181.000 7        47.500    22053753.344 1  86543725.127 8        51.400  
G17  25707672.672 1 135094763.274 5        35.700                                                  
R24  24108380.844 1 128918173.074 6        36.000    24108378.816 1
G19  23843392.813 1 125297858.716 6        38.700                                                  
G24  22875643.477 1 120212435.574 7        42.500    22875653.730 1  89769013.826 8        49.300  
R13  20714958.664 1 110616551.056 6        36.000    20714956.367 1
G25  21554533.148 1 113269787.729 7        47.500    21554543.418 1  84584701.010 8        50.200  
G29  23619213.875 1 124119832.365 7        42.200                                                  
E13  23413784.984 1 123040323.781 8        50.100    23413789.457 1  91880809.708 8        52.900  
E01  25543382.625 1 134231399.864 8        48.600    25543387.191 1 100237753.512 8        48.000  
E21  23446998.320 1 123214867.326 8        53.700    23447002.945 1  92011151.527 8        52.600  
E27  25656574.438 1 134826215.911 7        47.200    25656580.465 1 100681940.426 7        47.400  
E15  26737494.898 1 140506524.601 6        40.000    26737501.723 1 104923748.485 7        43.800  
> 2020 05 14 22 02 30.0000000  0 23                     
R11  22349679.961 1 119429918.908 7        42.600    22349679.551 1
G12  20176111.563 1 106026216.206 8        50.100                                                  
G02  20935091.977 1 110014736.656 8        49.600                                                  
R06  23693521.156 1 126433143.183 5        32.800    23693520.625 1
R07  24261923.445 1 129875959.521 5        30.400    24261921.137 1
R12  19391078.508 1 103583668.254 8        50.300    19391078.367 1
R21  23656646.320 1 126591517.315 6        40.000    23656644.422 1
G05  23361827.922 1 122767257.599 7        42.100                                                  
R22  19962234.078 1 106559670.937 8        49.200    19962232.605 1
R23  20867913.953 1 111629281.077 8        48.100    20867913.211 1
G06  22068710.703 1 115971840.420 7        47.000    22068721.684 1  86602464.283 8        51.500  
G17  25721599.125 1 135167945.854 4        26.800                                                  
R24  24090193.656 1 128820920.421 5        34.900    24090190.988 1
G19  23859524.133 1 125382635.109 6        40.400                                                  
G24  22892220.367 1 120299550.507 7        42.900    22892231.656 1  89834067.126 8        49.900  
R13  20699501.039 1 110534015.346 5        35.800    20699499.730 1
G25  21540572.086 1 113196422.423 7        47.500    21540582.512 1  84529915.262 8        50.500  
G29  23605363.789 1 124047044.691 7        42.100                                                  
E13  23419534.922 1 123070540.745 8        48.900    23419539.594 1  91903374.329 8        52.900  
E01  25530973.336 1 134166186.620 8        48.500    25530977.719 1 100189055.339 7        47.500  
E21  23448793.500 1 123224301.747 8        52.500    23448798.492 1  92018196.700 8        52.900  
E27  25671255.836 1 134903364.372 7        47.600    25671261.410 1 100739551.256 7        47.400  
E15  26752247.156 1 140584043.708 6        40.300    26752253.527 1 104981636.103 7        44.400  
> 2020 05 14 22 03 00.0000000  0 21                     
R11  22373409.711 1 119556720.858 7        42.200    22373409.793 1
G12  20171768.781 1 106003396.811 8        50.200                                                  
G02  20940560.836 1 110043473.245 8        49.800                                                  
R06  23686780.820 1 126397154.505 6        36.200    23686778.539 1
R12  19399325.922 1 103627725.499 8        48.600    19399326.086 1
R21  23676065.016 1 126695440.688 6        40.300    23676064.770 1
G05  23343755.508 1 122672295.073 6        41.500                                                  
R22  19972617.625 1 106615099.460 7        47.300    19972616.297 1
R23  20856822.492 1 111569947.085 7        47.300    20856820.438 1
G06  22083737.813 1 116050810.186 7        46.200    22083749.242 1  86661435.211 8        51.400  
R24  24072035.609 1 128723866.160 5        30.700    24072037.270 1
G19  23875661.328 1 125467438.462 6        38.300                                                  
G24  22908839.617 1 120386883.191 7        42.700    22908850.516 1  89899283.048 8        49.900  
R13  20684151.945 1 110452050.346 5        34.600    20684150.098 1
G25  21526666.469 1 113123347.241 7        47.200    21526676.680 1  84475346.154 8        50.700  
G29  23591533.727 1 123974367.377 6        41.800                                                  
E13  23425331.633 1 123101000.580 8        50.100    23425335.871 1  91926120.314 8        52.900  
E01  25518601.734 1 134101174.309 7        47.600    25518606.242 1 100140507.195 7        47.700  
E21  23450660.453 1 123234111.586 8        52.600    23450665.211 1  92025522.228 8        52.900  
E27  25685976.086 1 134980721.653 7        46.200    25685981.875 1 100797318.004 7        47.300  
E15  26767001.195 1 140661571.605 6        40.900    26767007.086 1 105039530.271 7        44.700  
> 2020 05 14 22 03 30.0000000  0 21                     
R11  22397187.586 1 119683780.854 7        43.400    22397187.648 1
G12  20167510.750 1 105981017.642 8        50.700                                                  
G02  20946105.906 1 110072612.263 8        50.300                                                  
R06  23680148.125 1 126361779.130 5        34.300    23680147.465 1
R12  19407714.477 1 103672535.722 8        51.000    19407714.254 1
R21  23695471.648 1 126799282.455 6        40.400    23695470.559 1
G05  23325713.336 1 122577479.039 7        42.800                                                  
R22  19983059.055 1 106670835.925 8        49.200    19983057.547 1
R23  20845804.773 1 111511014.628 8        48.000    20845804.324 1
G06  22098824.695 1 116130087.976 7        46.600    22098835.168 1  86720636.135 8        51.200  
R24  24053927.859 1 128627011.284 5        30.000    24053925.605 1
G19  23891804.063 1 125552268.575 6        39.400                                                  
G24  22925499.359 1 120474431.671 7        42.000    22925510.020 1  89964660.081 8        49.100  
R13  20668909.750 1 110370659.625 5        34.700    20668908.230 1
G25  21512816.898 1 113050564.660 7        47.600    21512826.641 1  84420995.548 8        50.900  
G29  23577724.742 1 123901800.581 6        41.700                                                  
E13  23431173.805 1 123131702.240 8        49.400    23431178.137 1  91949046.881 8        52.800  
E01  25506268.773 1 134036364.774 8        48.500    25506273.262 1 100092110.483 7        47.600  
E21  23452598.984 1 123244297.503 8        51.900    23452603.551 1  92033128.584 8        52.700  
E27  25700736.430 1 135058286.834 7        46.800    25700741.840 1 100855240.011 7        47.100  
E15  26781753.953 1 140739107.386 6        40.800    26781761.773 1 105097430.339 7        45.200  
> 2020 05 14 22 04 00.0000000  0 21                     
R11  22421015.156 1 119811095.398 7        44.200    22421013.563 1
G12  20163335.906 1 105959079.950 8        50.800                                                  
G02  20951727.180 1 110102151.373 8        50.300                                                  
R06  23673635.172 1 126327019.304 5        34.500    23673633.711 1
R12  19416244.156 1 103718097.063 8        52.000    19416243.898 1
R21  23714862.320 1 126903040.921 6        40.000    23714860.422 1
G05  23307697.719 1 122482811.997 7        42.100                                                  
R22  19993557.289 1 106726877.002 8        49.600    19993556.195 1
R23  20834862.836 1 111452483.160 8        48.200    20834861.930 1
G06  22113968.297 1 116209670.724 7        46.600    22113979.078 1  86780064.811 8        50.900  
R24  24035851.289 1 128530356.451 5        30.600    24035851.512 1
G19  23907951.969 1 125637124.261 6        40.900                                                  
G24  22942199.539 1 120562192.362 6        41.800    22942210.176 1  90030195.643 8        49.200  
R13  20653775.680 1 110289846.802 5        34.700    20653774.316 1
G25  21499022.633 1 112978076.448 7        47.500    21499032.613 1  84366864.766 8        51.200  
G29  23563936.781 1 123829343.735 7        43.000                                                  
E13  23437061.859 1 123162643.935 8        49.900    23437066.098 1  91972152.684 8        52.900  
E01  25493974.773 1 133971759.176 8        49.000    25493979.113 1 100043866.070 7        47.200  
E21  23454608.398 1 123254859.435 8        53.500    23454613.281 1  92041015.730 8        52.700  
E27  25715535.656 1 135136058.494 7        47.400    25715541.137 1 100913316.195 7        47.300  
E15  26796509.063 1 140816649.472 6        39.100    26796517.707 1 105155335.109 7        45.100  
> 2020 05 14 22 04 30.0000000  0 21                     
R11  22444884.383 1 119938661.381 7        42.500    22444884.195 1
G12  20159245.938 1 105937585.967 8        51.100                                                  
G02  20957424.023 1 110132089.701 8        49.600                                                  
R06  23667235.758 1 126292878.093 5        33.600    23667235.418 1
R12  19424913.578 1 103764409.085 8        51.000    19424913.531 1
R21  23734235.047 1 127006715.491 6        37.600    23734233.559 1
G05  23289712.711 1 122388297.906 6        41.700                                                  
R22  20004112.609 1 106783221.023 8        49.100    20004111.711 1
R23  20823997.688 1 111394352.730 8        48.900    20823996.090 1
G06  22129170.133 1 116289556.691 7        46.500    22129180.391 1  86839719.898 8        50.400  
R24  24017813.586 1 128433903.350 5        33.900    24017814.680 1
G19  23924105.539 1 125722005.808 6        40.900                                                  
G24  22958939.844 1 120650162.513 6        41.600    22958950.938 1  90095887.589 8        49.500  
R13  20638752.445 1 110209616.364 5        35.000    20638749.980 1
G25  21485284.547 1 112905885.636 7        46.600    21485295.402 1  84312956.053 8        51.400  
G29  23550169.969 1 123756997.833 7        42.100                                                  
E13  23442995.477 1 123193825.121 8        50.300    23442999.840 1  91995437.349 8        52.900  
E01  25481720.055 1 133907359.913 8        48.500    25481724.090 1  99995775.737 7        47.400  
E21  23456690.242 1 123265798.586 8        52.100    23456695.094 1  92049184.563 8        52.800  
E27  25730374.289 1 135214036.314 7        46.700    25730380.379 1 100971546.356 7        46.700  
E15  26811266.875 1 140894197.586 6        40.700    26811274.277 1 105213244.368 7        44.800  
> 2020 05 14 22 05 00.0000000  0 22                     
R11  22468803.141 1 120066474.927 7        43.600    22468803.434 1
G12  20155240.609 1 105916536.643 8        51.900                                                  
G02  20963196.914 1 110162425.318 8        50.500                                                  
R06  23660955.672 1 126259357.228 5        34.600    23660954.336 1
R07  24174913.648 1 129410231.66114        29.900                  
R12  19433723.500 1 103811469.631 8        51.900    19433723.219 1
R21  23753591.031 1 127110304.261 6        38.000    23753591.938 1
G05  23271757.477 1 122293939.455 7        43.600                                                  
R22  20014724.023 1 106839864.694 8        49.600    20014722.820 1
R23  20813204.422 1 111336623.090 8        49.000    20813203.574 1
G06  22144429.414 1 116369742.765 7        47.100    22144439.914 1  86899599.099 8        50.500  
R24  23999814.633 1 128337652.182 6        37.500    23999816.063 1
G19  23940261.852 1 125806912.365 6        40.900                                                  
G24  22975719.359 1 120738339.173 6        41.400    22975730.887 1  90161733.749 8        50.000  
R13  20623836.078 1 110129971.745 5        34.300    20623834.332 1
G25  21471603.977 1 112833993.965 7        46.300    21471614.895 1  84259270.743 8        51.700  
G29  23536424.898 1 123684762.208 7        43.500                                                  
E13  23448974.094 1 123225244.007 8        50.300    23448978.594 1  92018899.497 8        53.100  
E01  25469504.750 1 133843168.151 8        48.900    25469508.652 1  99947840.350 7        46.800  
E21  23458843.586 1 123277114.837 8        53.000    23458848.629 1  92057635.010 8        52.900  
E27  25745251.867 1 135292218.798 7        47.300    25745257.762 1 101029929.333 7        46.800  
E15  26826025.039 1 140971750.016 6        41.400    26826032.004 1 105271156.893 7        45.600  
> 2020 05 14 22 05 30.0000000  0 22                     
R11  22492766.438 1 120194532.243 7        42.400    22492766.898 1
G12  20151319.961 1 105895933.278 8        51.500                                                  
G02  20969044.930 1 110193156.095 8        50.000                                                  
R06  23654791.758 1 126226459.021 5        35.600    23654789.328 1
R07  24157612.578 1 129317571.281 5        30.900    24157611.043 1
R12  19442673.648 1 103859277.490 8        51.900    19442673.320 1
R21  23772935.734 1 127213805.704 6        38.700    23772934.484 1
G05  23253831.758 1 122199740.352 7        43.300                                                  
R22  20025390.109 1 106896805.380 8        49.300    20025389.566 1
R23  20802487.719 1 111279293.707 8        48.900    20802486.660 1
G06  22159744.594 1 116450226.217 7        47.300    22159755.699 1  86959700.368 8        50.400  
R24  23981854.523 1 128241603.756 6        39.200    23981854.711 1
G19  23956421.828 1 125891843.173 6        40.100                                                  
G24  22992537.695 1 120826719.053 6        41.800    22992548.563 1  90227731.627 8        49.900  
R13  20609031.898 1 110050916.482 5        34.500    20609030.367 1
G25  21457981.500 1 112762403.555 7        47.000    21457991.738 1  84205810.395 8        51.600  
G29  23522698.719 1 123612636.841 7        43.500                                                  
E13  23454997.789 1 123256899.095 8        50.300    23455002.438 1  92042538.036 8        52.900  
E01  25457329.367 1 133779185.365 8        49.400    25457333.320 1  99900061.016 7        47.100  
E21  23461068.852 1 123288808.426 8        53.100    23461074.086 1  92066367.230 8        53.000  
E27  25760168.461 1 135370604.722 7        47.400    25760174.316 1 101088464.224 7        46.800  
E15  26840784.047 1 141049305.659 6        41.800    26840790.422 1 105329071.761 7        44.900  
> 2020 05 14 22 06 00.0000000  0 22                     
R11  22516774.445 1 120322829.846 6        41.700    22516775.211 1
G12  20147484.000 1 105875777.372 8        52.100                                                  
G02  20974967.320 1 110224280.448 8        51.000                                                  
R06  23648742.328 1 126194185.669 5        35.500    23648740.594 1
R07  24140335.820 1 129225099.872 5        32.400    24140335.844 1
R12  19451762.945 1 103907831.032 8        51.900    19451762.277 1
R21  23792260.016 1 127317218.618 6        37.400    23792258.219 1
G05  23235936.133 1 122105703.325 7        42.400                                                  
R22  20036112.836 1 106954040.161 8        49.600    20036111.363 1
R23  20791846.086 1 111222364.862 8        49.800    20791844.641 1
G06  22175116.508 1 116531004.576 7        47.300    22175127.023 1  87020021.849 8        50.300  
R24  23963930.148 1 128145759.022 6        36.100    23963930.598 1
G19  23972589.430 1 125976797.696 6        40.600                                                  
G24  23009393.789 1 120915299.509 6        41.600    23009405.754 1  90293879.324 8        50.300  
R13  20594340.188 1 109972454.514 5        35.300    20594337.363 1
G25  21444415.750 1 112691116.770 7        46.800    21444426.145 1  84152576.763 8        51.400  
G29  23508993.555 1 123540621.537 7        43.600                                                  
E13  23461066.445 1 123288789.193 8        49.800    23461070.961 1  92066352.079 8        52.900  
E01  25445193.781 1 133715413.309 8        48.900    25445197.992 1  99852439.046 7        47.300  
E21  23463365.758 1 123300879.851 9        54.000    23463370.941 1  92075381.589 8        52.800  
E27  25775123.484 1 135449193.132 7        46.600    25775129.883 1 101147150.343 7        47.400  
E15  26855542.430 1 141126863.459 6        40.800    26855549.516 1 105386988.275 7        45.300  
> 2020 05 14 22 06 30.0000000  0 22                     
R11  22540830.500 1 120451364.748 7        43.100    22540830.293 1
G12  20143734.328 1 105856070.771 8        52.300                                                  
G02  20980964.539 1 110255796.789 8        51.100                                                  
R06  23642813.969 1 126162540.271 6        36.100    23642811.090 1
R07  24123096.828 1 129132809.53515        30.700    24123095.477 1
R12  19460991.625 1 103957128.804 8        51.700    19460991.016 1
R21  23811567.703 1 127420542.137 6        37.700    23811566.449 1
G05  23218073.492 1 122011831.663 7        42.900                                                  
R22  20046889.414 1 107011567.096 8        49.900    20046888.262 1
R23  20781279.156 1 111165836.025 8        49.400    20781277.242 1
G06  22190544.391 1 116612075.551 8        48.200    22190553.781 1  87080561.858 8        50.000  
R24  23946045.000 1 128050118.937 5        34.600    23946045.082 1
G19  23988761.469 1 126061776.296 7        42.500                                                  
G24  23026288.414 1 121004077.422 7        42.800    23026299.582 1  90360174.455 8        50.500  
R13  20579756.773 1 109894589.628 5        35.400    20579755.703 1
G25  21430908.484 1 112620136.138 7        47.000    21430918.738 1  84099571.775 8        51.200  
G29  23495310.719 1 123468716.784 7        43.000                                                  
E13  23467179.383 1 123320913.253 8        50.500    23467183.945 1  92090340.821 8        52.900  
E01  25433098.836 1 133651853.896 8        49.200    25433102.879 1  99804975.852 7        47.300  
E21  23465735.281 1 123313329.718 8        53.300    23465740.023 1  92084678.571 8        52.800  
E27  25790117.070 1 135527983.257 7        46.800    25790123.555 1 101205987.070 7        47.900  
E15  26870301.500 1 141204422.674 6        41.900    26870308.043 1 105444905.839 7        44.500  
> 2020 05 14 22 07 00.0000000  0 22                     
R11  22564928.383 1 120580132.930 7        43.400    22564927.516 1
G12  20140069.516 1 105836814.759 8        52.200                                                  
G02  20987036.266 1 110287703.337 8        50.100                                                  
R06  23636996.680 1 126131524.865 5        33.700    23636996.469 1
R07  24105891.516 1 129040704.525 5        34.400    24105889.488 1
R12  19470358.297 1 104007169.382 8        51.600    19470358.297 1
R21  23830859.328 1 127523774.577 6        39.200    23830858.973 1
G05  23200243.000 1 121918128.603 7        43.800                                                  
R22  20057720.211 1 107069383.004 8        49.900    20057718.832 1
R23  20770785.633 1 111109706.954 8        49.500    20770784.000 1
G06  22206026.117 1 116693436.378 7        47.700    22206035.906 1  87141318.311 8        49.900  
R24  23928197.992 1 127954684.392 6        36.300    23928198.441 1
G19  24004937.539 1 126146777.958 6        40.600                                                  
G24  23043217.938 1 121093050.419 6        41.900    23043230.746 1  90426615.264 8        50.200  
R13  20565287.141 1 109817325.165 5        35.900    20565286.203 1
G25  21417460.250 1 112549463.761 7        47.300    21417470.246 1  84046796.963 8        51.100  
G29  23481650.117 1 123396922.560 7        43.900                                                  
E13  23473336.742 1 123353269.800 8        50.100    23473341.133 1  92114503.188 8        52.800  
E01  25421044.195 1 133588508.606 8        48.800    25421048.910 1  99757672.581 7        47.100  
E21  23468176.484 1 123326158.262 8        53.300    23468181.090 1  92094258.319 8        52.700  
E27  25805148.086 1 135606973.843 7        47.100    25805154.102 1 101264973.500 7        46.800  
E15  26885061.219 1 141281982.017 6        41.700    26885067.281 1 105502823.511 7        44.300  
> 2020 05 14 22 07 30.0000000  0 22                     
R11  22589068.766 1 120709131.335 7        44.100    22589068.613 1
G12  20136491.797 1 105818011.327 8        52.200                                                  
G02  20993181.422 1 110319998.928 8        50.500                                                  
R06  23631305.211 1 126101141.902 5        33.300    23631302.824 1
R07  24088719.281 1 128948789.132 5        35.000    24088718.574 1
R12  19479864.656 1 104057951.274 8        51.000    19479864.879 1
R21  23850134.375 1 127626915.045 6        40.200    23850133.313 1
G05  23182443.734 1 121824597.693 7        43.300                                                  
R22  20068605.656 1 107127485.783 8        49.800    20068603.668 1
R23  20760367.148 1 111053977.839 8        49.300    20760366.043 1
G06  22221562.766 1 116775084.855 7        47.300    22221573.480 1  87202289.556 8        50.000  
R24  23910391.148 1 127859456.360 6        38.500    23910390.754 1
G19  24021115.242 1 126231802.362 6        39.100                                                  
G24  23060185.414 1 121182215.404 7        42.000    23060198.270 1  90493199.474 8        50.100  
R13  20550931.852 1 109740665.511 5        34.900    20550930.238 1
G25  21404070.000 1 112479102.184 7        47.000    21404080.789 1  83994254.237 8        51.000  
G29  23468008.617 1 123325238.755 7        43.400                                                  
E13  23479538.148 1 123385857.817 8        49.800    23479542.387 1  92138838.391 8        52.800  
E01  25409030.906 1 133525379.348 8        48.500    25409035.727 1  99710530.635 7        46.600  
E21  23470689.719 1 123339366.134 8        53.800    23470694.574 1  92104121.321 8        52.700  
E27  25820217.438 1 135686164.150 7        47.400    25820223.086 1 101324109.056 7        46.900  
E15  26899819.070 1 141359540.796 6        41.100    26899826.566 1 105560740.732 7        44.600  
> 2020 05 14 22 08 00.0000000  0 22                     
R11  22613251.438 1 120838356.132 7        43.900    22613251.285 1
G12  20132999.594 1 105799661.367 8        53.200                                                  
G02  20999401.422 1 110352681.476 8        50.800                                                  
R06  23625731.086 1 126071392.980 5        35.200    23625729.496 1
R07  24071584.555 1 128857067.807 5        33.800    24071583.012 1
R12  19489510.031 1 104109472.847 8        50.800    19489510.020 1
R21  23869391.344 1 127729962.128 6        39.200    23869390.277 1
G05  23164679.844 1 121731241.740 7        43.200                                                  
R22  20079543.578 1 107185872.347 8        49.500    20079541.555 1
R23  20750024.266 1 110998648.229 8        48.900    20750022.668 1
G06  22237155.063 1 116857018.168 7        47.200    22237164.961 1  87263473.520 8        49.900  
R24  23892621.734 1 127764435.230 6        41.600    23892621.863 1
G19  24037297.633 1 126316849.181 6        37.900                                                  
G24  23077189.711 1 121271569.214 7        42.400    23077202.148 1  90559924.650 8        50.400  
R13  20536690.344 1 109664614.318 5        35.800    20536688.688 1
G25  21390740.789 1 112409053.490 7        47.200    21390750.926 1  83941945.154 8        51.200  
G29  23454387.695 1 123253665.189 7        43.000                                                  
E13  23485783.320 1 123418675.783 8        50.400    23485787.422 1  92163345.315 8        52.600  
E01  25397059.445 1 133462467.609 8        48.500    25397064.094 1  99663551.112 7        46.500  
E21  23473275.313 1 123352953.421 8        53.400    23473280.273 1  92114267.669 8        52.700  
E27  25835324.344 1 135765552.883 7        46.500    25835330.152 1 101383392.808 7        46.400  
E15  26914578.555 1 141437097.686 7        42.600    26914585.027 1 105618656.586 7        43.900  
> 2020 05 14 22 08 30.0000000  0 22                     
R11  22637475.234 1 120967803.837 7        43.300    22637475.500 1
G12  20129594.430 1 105781766.356 8        52.700                                                  
G02  21005694.617 1 110385749.245 8        50.900                                                  
R06  23620274.758 1 126042280.832 5        35.700    23620273.496 1
R07  24054483.945 1 128765544.793 5        33.800    24054485.594 1
R12  19499293.758 1 104161732.220 8        51.000    19499293.219 1
R21  23888631.766 1 127832914.579 6        40.400    23888629.773 1
G05  23146948.320 1 121638064.331 7        43.500                                                  
R22  20090533.891 1 107244540.272 8        49.100    20090532.219 1
R23  20739755.227 1 110943717.672 8        48.500    20739753.664 1
G06  22252799.352 1 116939233.768 7        46.000    22252810.602 1  87324868.277 8        50.200  
R24  23874890.914 1 127669622.141 6        39.800    23874890.570 1
G19  24053486.859 1 126401917.644 6        39.000                                                  
G24  23094227.680 1 121361109.151 6        41.300    23094240.074 1  90626788.840 8        49.700  
R13  20522563.211 1 109589174.771 5        35.400    20522561.398 1
G25  21377470.648 1 112339319.944 7        47.200    21377481.352 1  83889871.424 8        51.500  
G29  23440788.125 1 123182202.353 7        42.900                                                  
E13  23492071.422 1 123451722.389 8        50.600    23492075.957 1  92188022.988 8        52.700  
E01  25385129.445 1 133399775.023 8        49.000    25385133.801 1  99616735.244 7        47.300  
E21  23475932.836 1 123366920.486 8        53.700    23475938.023 1  92124697.618 8        52.900  
E27  25850469.141 1 135845138.980 7        45.900    25850475.695 1 101442823.910 7        46.800  
E15  26929336.086 1 141514651.697 6        41.300    26929342.695 1 105676570.267 7        43.800  
> 2020 05 14 22 09 00.0000000  0 22                     
R11  22661740.844 1 121097470.996 7        42.400    22661740.449 1
G12  20126275.672 1 105764328.123 8        52.100                                                  
G02  21012058.211 1 110419200.806 8        50.800                                                  
R06  23614937.820 1 126013807.741 5        35.500    23614936.813 1
R07  24037425.930 1 128674224.446 5        33.200    24037425.691 1
R12  19509214.133 1 104214728.052 8        51.000    19509213.992 1
R21  23907851.063 1 127935771.309 6        39.400    23907849.879 1
G05  23129251.016 1 121545068.901 7        43.300                                                  
R22  20101576.047 1 107303487.127 8        49.300    20101574.742 1
R23  20729561.328 1 110889186.168 8        48.600    20729560.000 1
G06  22268498.813 1 117021729.343 7        47.200    22268509.152 1  87386472.105 8        50.200  
R24  23857198.266 1 127575018.062 6        40.200    23857199.031 1
G19  24069680.242 1 126487007.882 6        38.900                                                  
G24  23111302.266 1 121450832.039 7        42.100    23111313.699 1  90693789.641 8        49.600  
R13  20508549.555 1 109514350.943 6        36.700    20508549.113 1
G25  21364261.789 1 112269904.015 7        47.600    21364271.801 1  83838034.881 8        51.400  
G29  23427211.258 1 123110850.162 7        42.500                                                  
E13  23498403.359 1 123484996.544 8        50.200    23498407.824 1  92212870.572 8        52.500  
E01  25373241.578 1 133337303.440 8        49.800    25373246.133 1  99570084.390 7        47.600  
E21  23478663.523 1 123381267.846 8        53.200    23478668.207 1  92135411.548 8        52.700  
E27  25865652.219 1 135924921.466 7        47.300    25865657.188 1 101502401.696 7        46.700  
E15  26944093.664 1 141592201.977 7        42.100    26944099.941 1 105734481.152 7        43.900  
> 2020 05 14 22 09 30.0000000  0 22                     
R11  22686045.094 1 121227354.172 7        42.500    22686045.797 1
G12  20123044.773 1 105747348.135 8        52.500                                                  
G02  21018498.305 1 110453034.019 8        51.400                                                  
R06  23609724.477 1 125985976.190 6        38.600    23609723.383 1
R07  24020408.969 1 128583111.223 5        32.800    24020408.484 1
R12  19519273.531 1 104268458.393 8        51.000    19519272.992 1
R21  23927055.844 1 128038531.107 6        40.500    23927054.199 1
G05  23111591.156 1 121452258.277 7        43.700                                                  
R22  20112670.117 1 107362710.208 8        49.200    20112668.750 1
R23  20719441.852 1 110835053.547 8        48.100    20719440.055 1
G06  22284248.789 1 117104502.270 7        46.600    22284259.980 1  87448283.052 8        49.800  
R24  23839548.242 1 127480623.511 6        40.500    23839548.008 1
G19  24085877.758 1 126572119.305 6        40.000                                                  
G24  23128410.781 1 121540735.216 7        42.700    23128422.121 1  90760925.066 8        49.800  
R13  20494654.266 1 109440146.231 5        35.900    20494653.363 1
G25  21351112.094 1 112200807.913 7        47.200    21351123.297 1  83786437.165 8        51.400  
G29  23413652.109 1 123039608.566 6        39.600                                                  
E13  23504778.164 1 123518496.878 8        50.600    23504782.605 1  92237887.049 8        52.400  
E01  25361396.094 1 133275054.438 8        50.200    25361400.430 1  99523599.772 7        47.300  
E21  23481465.953 1 123395995.751 8        53.000    23481470.848 1  92146409.650 8        52.700  
E27  25880870.648 1 136004899.318 7        46.200    25880876.266 1 101562125.361 7        45.900  
E15  26958850.086 1 141669747.413 7        42.000    26958857.410 1 105792388.446 7        44.600  
> 2020 05 14 22 10 00.0000000  0 22                     
R11  22710390.609 1 121357449.225 6        40.400    22710390.695 1
G12  20119900.781 1 105730827.077 8        51.900                                                  
G02  21025008.023 1 110487247.072 8        50.700                                                  
R06  23604629.633 1 125958787.578 6        38.000    23604627.699 1
R07  24003424.391 1 128492209.020 5        33.700    24003425.430 1
R12  19529468.945 1 104322921.102 8        51.600    19529468.203 1
R21  23946240.375 1 128141192.262 6        39.900    23946238.723 1
G05  23093965.148 1 121359635.819 7        42.600                                                  
R22  20123817.195 1 107422206.434 8        49.000    20123815.172 1
R23  20709396.313 1 110781318.613 7        47.900    20709395.055 1
G06  22300051.875 1 117187549.484 7        45.900    22300063.289 1  87510298.794 8        50.000  
R24  23821935.977 1 127386439.002 6        39.500    23821935.047 1
G19  24102075.813 1 126657250.723 6        39.400                                                  
G24  23145551.641 1 121630814.772 6        41.800    23145563.215 1  90828192.198 8        49.600  
R13  20480875.281 1 109366563.672 6        36.400    20480873.316 1
G25  21338026.539 1 112132033.427 8        48.000    21338035.691 1  83735079.618 8        51.400  
G29  23400118.648 1 122968476.960 7        42.200                                                  
E13  23511195.938 1 123552221.587 8        49.200    23511200.254 1  92263071.084 8        52.500  
E01  25349593.305 1 133213029.242 8        49.500    25349597.523 1  99477282.271 7        47.700  
E21  23484341.141 1 123411104.044 8        52.000    23484345.859 1  92157691.814 8        52.700  
E27  25896126.977 1 136085070.929 7        46.600    25896132.652 1 101621993.694 7        45.700  
E15  26973605.594 1 141747286.563 6        41.500    26973611.160 1 105850291.038 7        43.400  
> 2020 05 14 22 10 30.0000000  0 21                     
R11  22734775.164 1 121487753.487 6        41.000    22734775.883 1
G12  20116845.203 1 105714766.801 8        52.200                                                  
G02  21031590.516 1 110521838.668 8        51.100                                                  
R06  23599655.289 1 125932244.498 6        37.600    23599652.785 1
R12  19539801.031 1 104378114.902 8        52.300    19539800.797 1
R21  23965404.789 1 128243754.372 6        38.600    23965404.293 1
G05  23076375.813 1 121267205.171 7        43.800                                                  
R22  20135012.734 1 107481974.088 8        48.800    20135011.191 1
R23  20699425.203 1 110727981.953 8        48.000    20699423.742 1
G06  22315907.141 1 117270869.174 7        46.200    22315918.633 1  87572518.024 8        50.000  
R24  23804361.672 1 127292465.835 6        40.700    23804361.813 1
G19  24118279.281 1 126742402.712 6        37.900                                                  
G24  23162726.977 1 121721069.100 6        41.600    23162739.410 1  90895589.862 8        50.200  
R13  20467211.898 1 109293608.113 6        36.700    20467211.281 1
G25  21325000.242 1 112063583.578 7        47.200    21325010.031 1  83683964.483 8        51.300  
G29  23386602.953 1 122897455.994 6        39.600                                                  
E13  23517656.148 1 123586170.059 8        49.300    23517660.477 1  92288422.217 8        52.500  
E01  25337833.109 1 133151230.145 8        49.800    25337837.484 1  99431133.599 7        47.900  
E21  23487288.719 1 123426593.684 8        52.100    23487293.379 1  92169258.743 8        52.600  
E27  25911420.273 1 136165435.816 7        46.500    25911426.141 1 101682006.411 7        46.000  
E15  26988359.711 1 141824819.103 7        42.200    26988366.043 1 105908188.675 7        43.600  
> 2020 05 14 22 11 00.0000000  0 21                     
R11  22759200.094 1 121618263.025 6        41.800    22759200.063 1
G12  20113876.859 1 105699168.918 8        52.200                                                  
G02  21038245.445 1 110556806.848 8        50.300                                                  
R06  23594803.219 1 125906348.862 6        37.500    23594800.910 1
R12  19550270.125 1 104434037.944 8        51.300    19550269.715 1
R21  23984554.016 1 128346216.119 6        38.100    23984551.422 1
G05  23058822.477 1 121174969.242 7        42.600                                                  
R22  20146259.977 1 107542010.224 8        48.800    20146258.461 1
R23  20689529.391 1 110675043.140 8        48.800    20689527.746 1
G06  22331814.180 1 117354458.663 7        46.400    22331825.289 1  87634938.743 8        49.800  
R24  23786828.375 1 127198704.715 6        40.800    23786827.250 1
G19  24134487.000 1 126827574.617 6        37.700                                                  
G24  23179934.758 1 121811495.158 7        42.800    23179946.777 1  90963115.735 8        50.200  
R13  20453668.461 1 109221282.962 6        36.700    20453667.230 1
G25  21312036.672 1 111995460.499 7        47.200    21312046.547 1  83633093.366 8        51.600  
G29  23373109.805 1 122826545.957 6        41.400                                                  
E13  23524158.602 1 123620340.889 8        50.100    23524163.121 1  92313939.403 8        52.600  
E01  25326116.445 1 133089658.717 8        49.700    25326120.934 1  99385154.950 7        47.600  
E21  23490308.789 1 123442464.855 8        52.300    23490313.648 1  92181110.582 8        52.700  
E27  25926749.977 1 136245992.898 7        46.800    25926755.766 1 101742162.608 7        45.600  
E15  27003111.305 1 141902343.897 6        40.800    27003118.441 1 105966080.525 7        43.300  
> 2020 05 14 22 11 30.0000000  0 22                     
R11  22783658.930 1 121748974.292 6        40.200    22783659.742 1
G12  20110997.164 1 105684034.368 8        51.200                                                  
G02  21044970.875 1 110592150.013 8        50.000                                                  
R06  23590069.398 1 125881103.052 6        38.600    23590069.797 1
R07  23952724.000 1 128220785.612 5        33.300    23952723.734 1
R12  19560875.102 1 104490688.164 8        51.700    19560874.750 1
R21  24003678.305 1 128448576.084 6        37.400    24003680.000 1
G05  23041310.109 1 121082931.414 7        43.800                                                  
R22  20157556.227 1 107602312.258 8        49.100    20157555.094 1
R23  20679706.313 1 110622501.714 8        48.600    20679706.086 1
G06  22347772.008 1 117438315.327 7        46.300    22347783.059 1  87697558.933 8        50.200  
R24  23769331.758 1 127105156.203 6        39.800    23769332.684 1
G19  24150699.414 1 126912766.180 6        37.800                                                  
G24  23197173.336 1 121902088.777 6        41.400    23197185.488 1  91030766.753 8        49.700  
R13  20440242.797 1 109149591.331 6        36.100    20440241.602 1
G25  21299136.313 1 111927666.316 7        47.200    21299146.133 1  83582467.843 8        52.100  
G29  23359637.516 1 122755746.506 6        40.200                                                  
E13  23530703.484 1 123654732.626 8        49.100    23530707.488 1  92339621.547 8        52.500  
E01  25314443.141 1 133028316.442 8        49.600    25314447.922 1  99339347.407 8        48.300  
E21  23493401.375 1 123458717.667 8        52.000    23493406.430 1  92193247.417 8        52.800  
E27  25942116.344 1 136326740.832 7        46.200    25942121.281 1 101802461.343 7        46.000  
E15  27017863.414 1 141979859.823 6        41.900    27017869.113 1 106023965.752 7        43.600  
> 2020 05 14 22 12 00.0000000  0 22                     
R11  22808159.539 1 121879883.805 6        41.300    22808158.660 1
G12  20108205.016 1 105669364.747 8        51.100                                                  
G02  21051767.336 1 110627866.218 8        50.000                                                  
R06  23585461.531 1 125856508.336 6        38.400    23585460.195 1
R07  23935913.172 1 128130772.17815        33.900    23935911.277 1
R12  19571616.133 1 104548063.733 8        51.400    19571615.770 1
R21  24022790.367 1 128550833.322 5        35.900    24022788.441 1
G05  23023833.055 1 120991094.890 7        43.900                                                  
R22  20168902.055 1 107662877.302 8        48.300    20168901.063 1
R23  20669958.156 1 110570356.903 7        47.700    20669957.742 1
G06  22363779.047 1 117522436.453 7        45.400    22363790.488 1  87760376.668 8        49.800  
R24  23751876.789 1 127011821.056 6        38.300    23751877.621 1
G19  24166915.406 1 126997976.386 6        38.800                                                  
G24  23214445.695 1 121992848.244 7        42.400    23214456.676 1  91098541.622 8        49.800  
R13  20426936.773 1 109078536.124 6        36.100    20426934.793 1
G25  21286298.492 1 111860203.167 7        46.300    21286308.336 1  83532089.549 8        52.200  
G29  23346183.422 1 122685057.651 6        38.800                                                  
E13  23537289.430 1 123689343.836 8        48.900    23537293.883 1  92365467.586 8        52.300  
E01  25302814.031 1 132967204.887 7        47.900    25302818.883 1  99293712.182 7        47.700  
E21  23496566.930 1 123475352.265 8        51.000    23496571.820 1  92205669.349 8        52.800  
E27  25957518.063 1 136407678.434 7        46.400    25957523.598 1 101862901.698 7        46.500  
E15  27032611.773 1 142057365.730 7        42.200    27032618.160 1 106081843.502 7        43.700  
> 2020 05 14 22 12 30.0000000  0 22                     
R11  22832693.188 1 122010987.564 6        40.900    22832692.820 1
G12  20105502.195 1 105655160.871 8        52.300                                                  
G02  21058634.727 1 110663953.201 8        50.600                                                  
R06  23580973.766 1 125832566.969 6        38.500    23580973.910 1
R07  23919140.891 1 128040992.634 5        35.900    23919140.535 1
R12  19582492.328 1 104606162.385 8        52.000    19582492.000 1
R21  24041882.742 1 128652986.407 6        38.100    24041879.883 1
G05  23006395.719 1 120899462.239 7        42.600                                                  
R22  20180297.492 1 107723702.918 8        48.900    20180295.602 1
R23  20660285.805 1 110518608.351 8        49.100    20660284.113 1
G06  22379836.477 1 117606819.370 7        45.900    22379848.105 1  87823389.867 8        50.100  
R24  23734464.945 1 126918699.533 6        38.900    23734463.914 1
G19  24183132.430 1 127083204.829 6        37.300                                                  
G24  23231746.570 1 122083770.230 6        41.600    23231758.387 1  91166437.851 8        49.400  
R13  20413748.742 1 109008121.160 6        36.300    20413748.332 1
G25  21273523.469 1 111793073.203 7        46.600    21273533.754 1  83481960.059 8        52.100  
G29  23332753.875 1 122614478.862 6        39.600                                                  
E13  23543917.172 1 123724173.027 8        49.100    23543921.609 1  92391476.399 8        52.200  
E01  25291229.398 1 132906325.516 8        48.900    25291233.988 1  99248250.342 8        48.200  
E21  23499805.000 1 123492368.693 8        52.200    23499809.961 1  92218376.417 8        52.600  
E27  25972955.719 1 136488804.389 7        46.900    25972961.309 1 101923482.704 7        45.500  
E15  27047358.789 1 142134860.471 7        42.700    27047365.398 1 106139712.935 7        44.300  
> 2020 05 14 22 13 00.0000000  0 22                     
R11  22857262.742 1 122142282.414 6        39.800    22857262.496 1
G12  20102888.313 1 105641424.556 8        51.300                                                  
G02  21065572.648 1 110700409.517 8        51.300                                                  
R06  23576612.320 1 125809280.604 6        38.600    23576610.941 1
R07  23902412.297 1 127951450.716 5        35.100    23902411.867 1
R12  19593503.492 1 104664982.191 8        51.700    19593503.023 1
R21  24060953.039 1 128755034.211 6        38.000    24060949.945 1
G05  22988999.438 1 120808037.228 7        43.300                                                  
R22  20191739.164 1 107784786.635 8        48.300    20191738.387 1
R23  20650685.086 1 110467256.141 8        48.100    20650684.238 1
G06  22395943.477 1 117691461.759 7        45.400    22395955.000 1  87886596.815 8        50.300  
R24  23717091.430 1 126825792.717 6        39.500    23717090.523 1
G19  24199352.438 1 127168451.589 5        35.200                                                  
G24  23249079.625 1 122174851.510 6        41.900    23249090.805 1  91234453.003 8        49.600  
R13  20400685.188 1 108938350.567 6        36.700    20400682.441 1
G25  21260813.203 1 111726278.937 7        46.300    21260823.277 1  83432081.223 8        52.300  
G29  23319344.297 1 122544010.449 6        40.300                                                  
E13  23550586.258 1 123759219.143 8        49.100    23550590.531 1  92417647.205 8        52.300  
E01  25279689.016 1 132845680.205 8        48.300    25279693.762 1  99202963.264 8        48.300  
E21  23503116.203 1 123509767.437 8        51.700    23503120.883 1  92231368.982 8        52.600  
E27  25988428.492 1 136570117.768 7        45.300    25988434.168 1 101984203.690 7        46.000  
E15  27062102.344 1 142212343.326 6        41.200    27062109.660 1 106197573.474 7        44.300  
> 2020 05 14 22 13 30.0000000  0 22                     
R11  22881866.711 1 122273764.716 6        39.900    22881867.508 1
G12  20100363.688 1 105628156.961 8        53.600                                                  
G02  21072578.664 1 110737233.276 8        50.800                                                  
R06  23572368.188 1 125786651.389 6        37.500    23572368.199 1
R07  23885732.016 1 127862150.405 5        33.400    23885730.563 1
R12  19604648.773 1 104724521.403 8        52.200    19604648.750 1
R21  24080001.055 1 128856975.977 6        36.800    24079999.934 1
G05  22971640.563 1 120716823.185 7        43.000                                                  
R22  20203231.133 1 107846126.016 8        49.900    20203229.613 1
R23  20641159.414 1 110416299.321 8        49.500    20641158.367 1
G06  22412099.352 1 117776361.073 7        46.000    22412110.828 1  87949995.631 8        50.300  
R24  23699756.125 1 126733101.145 6        39.600    23699756.246 1
G19  24215578.836 1 127253716.157 6        36.700                                                  
G24  23266441.375 1 122266089.397 6        41.000    23266452.941 1  91302585.126 8        49.900  
R13  20387740.695 1 108869227.745 6        36.600    20387738.141 1
G25  21248166.250 1 111659822.560 7        47.400    21248176.992 1  83382454.726 8        52.400  
G29  23305955.602 1 122473652.789 6        39.200                                                  
E13  23557296.398 1 123794480.827 8        50.100    23557300.418 1  92443978.977 8        52.300  
E01  25268192.977 1 132785270.573 8        49.600    25268197.984 1  99157852.188 8        48.700  
E21  23506499.859 1 123527548.678 8        53.600    23506504.516 1  92244647.168 8        52.800  
E27  26003938.047 1 136651617.430 7        47.300    26003943.355 1 102045063.768 7        45.900  
E15  27076844.492 1 142289813.273 6        41.500    27076851.480 1 106255424.383 7        44.000  
> 2020 05 14 22 14 00.0000000  0 22                     
R11  22906507.039 1 122405431.342 6        40.800    22906507.840 1
G12  20097928.359 1 105615360.077 8        52.000                                                  
G02  21079656.273 1 110774423.229 8        50.300                                                  
R06  23568253.977 1 125764681.361 6        37.800    23568252.234 1
R07  23869095.617 1 127773096.971 5        34.500    23869093.758 1
R12  19615929.594 1 104784777.939 8        51.300    19615928.867 1
R21  24099030.664 1 128958810.714 6        37.200    24099028.672 1
G05  22954325.398 1 120625823.859 7        43.600                                                  
R22  20214769.367 1 107907718.815 8        48.200    20214767.500 1
R23  20631707.328 1 110365738.228 8        48.900    20631706.602 1
G06  22428304.563 1 117861515.199 7        46.600    22428315.047 1  88013584.733 8        49.800  
R24  23682463.219 1 126640626.223 6        38.900    23682462.387 1
G19  24231807.727 1 127338998.551 6        38.700                                                  
G24  23283832.438 1 122357481.838 6        41.000    23283844.969 1  91370832.700 8        49.700  
R13  20374917.148 1 108800756.211 6        36.300    20374915.813 1
G25  21235584.852 1 111593706.749 7        46.300    21235595.563 1  83333082.551 8        52.100  
G29  23292588.055 1 122403405.998 6        40.200                                                  
E13  23564046.977 1 123829957.172 8        50.000    23564051.512 1  92470471.053 8        52.100  
E01  25256742.570 1 132725098.670 8        48.800    25256747.672 1  99112918.651 7        47.900  
E21  23509956.273 1 123545713.054 8        53.100    23509961.191 1  92258211.464 8        52.600  
E27  26019482.438 1 136733302.689 7        46.600    26019487.727 1 102106062.437 7        45.600  
E15  27091584.078 1 142367269.762 6        40.500    27091590.719 1 106313265.235 7        44.300  
> 2020 05 14 22 14 30.0000000  0 22                     
R11  22931181.422 1 122537277.556 6        39.500    22931180.512 1
G12  20095582.781 1 105603033.759 8        52.200                                                  
G02  21086802.648 1 110811976.386 8        50.300                                                  
R06  23564260.648 1 125743371.412 6        37.500    23564259.023 1
R07  23852509.000 1 127684293.131 5        31.000    23852505.215 1
R12  19627343.461 1 104845748.835 8        50.600    19627342.883 1
R21  24118043.258 1 129060536.508 6        38.700    24118041.277 1
G05  22937048.961 1 120535040.908 7        42.800                                                  
R22  20226354.734 1 107969561.247 8        49.100    20226352.770 1
R23  20622329.805 1 110315571.197 8        49.500    20622328.652 1
G06  22444556.711 1 117946920.441 7        46.600    22444566.984 1  88077361.361 8        49.600  
R24  23665210.008 1 126548367.271 6        39.800    23665209.613 1
G19  24248041.023 1 127424297.410 6        39.200                                                  
G24  23301252.719 1 122449023.657 6        40.600    23301263.723 1  91439191.763 8        49.200  
R13  20362217.414 1 108732938.705 6        36.900    20362215.352 1
G25  21223068.328 1 111527932.645 7        46.800    21223079.141 1  83283965.556 8        52.500  
G29  23279242.141 1 122333268.830 6        41.100                                                  
E13  23570838.438 1 123865645.744 8        50.100    23570842.813 1  92497121.603 8        52.200  
E01  25245337.734 1 132665165.015 8        49.000    25245342.285 1  99068162.997 7        47.500  
E21  23513485.375 1 123564259.566 8        53.200    23513490.609 1  92272061.128 8        52.500  
E27  26035060.875 1 136815171.205 7        47.000    26035066.969 1 102167197.970 7        45.700  
E15  27106320.453 1 142444710.637 6        40.400    27106327.730 1 106371094.447 7        44.800  
> 2020 05 14 22 15 00.0000000  0 22                     
R11  22955885.523 1 122669300.454 6        39.900    22955887.094 1
G12  20093326.844 1 105591180.227 8        53.500                                                  
G02  21094017.250 1 110849891.701 8        49.900                                                  
R06  23560391.516 1 125722724.455 6        37.300    23560389.234 1
R07  23835968.039 1 127595744.22015        33.900    23835963.738 1
R12  19638890.086 1 104907432.761 8        51.200    19638890.074 1
R21  24137032.188 1 129162152.991 6        40.400    24137030.055 1
G05  22919815.141 1 120444478.664 7        42.400                                                  
R22  20237985.617 1 108031651.936 8        49.000    20237984.590 1
R23  20613024.359 1 110265798.697 8        48.800    20613023.699 1
G06  22460856.359 1 118032575.184 7        46.300    22460866.172 1  88141324.305 8        49.500  
R24  23647997.484 1 126456325.863 6        39.000    23647997.074 1
G19  24264274.648 1 127509612.998 6        38.600                                                  
G24  23318698.203 1 122540713.574 6        39.500    23318712.711 1  91507661.471 8        50.000  
R13  20349641.219 1 108665778.830 6        37.300    20349638.613 1
G25  21210617.969 1 111462503.401 7        47.200    21210628.137 1  83235106.068 8        52.300  
G29  23265916.523 1 122263242.573 7        42.100                                                  
E13  23577670.125 1 123901546.102 8        49.700    23577674.484 1  92523930.324 8        52.300  
E01  25233978.758 1 132605472.113 8        49.000    25233983.012 1  99023587.139 8        48.000  
E21  23517087.539 1 123583189.322 8        53.200    23517092.887 1  92286196.966 8        52.600  
E27  26050674.930 1 136897222.725 7        46.600    26050680.715 1 102228470.147 7        46.200  
E15  27121053.797 1 142522135.799 6        41.000    27121061.172 1 106428911.945 7        44.800  
> 2020 05 14 22 15 30.0000000  0 22                     
R11  22980627.313 1 122801497.174 7        42.300    22980628.453 1
G12  20091161.289 1 105579800.843 8        52.700                                                  
G02  21101301.188 1 110888167.951 8        51.100                                                  
R06  23556644.086 1 125702742.383 6        37.100    23556644.570 1
R07  23819471.742 1 127507455.150 5        33.500    23819470.996 1
R12  19650570.656 1 104969828.205 8        51.200    19650570.551 1
R21  24156000.242 1 129263659.652 6        39.900    24155998.809 1
G05  22902624.844 1 120354140.795 7        42.700                                                  
R22  20249664.281 1 108093988.528 8        49.500    20249663.000 1
R23  20603795.281 1 110216420.588 8        50.100    20603793.309 1
G06  22477202.430 1 118118477.257 7        46.700    22477212.430 1  88205471.946 8        49.100  
R24  23630825.453 1 126364503.151 6        37.300    23630825.984 1
G19  24280512.766 1 127594945.199 6        38.300                                                  
G24  23336176.461 1 122632549.113 6        39.300    23336188.637 1  91576239.878 8        49.500  
R13  20337187.664 1 108599280.384 6        37.500    20337186.004 1
G25  21198233.000 1 111397421.623 7        47.100    21198243.590 1  83186506.063 8        52.200  
G29  23252611.922 1 122193327.646 7        42.100                                                  
E13  23584541.992 1 123937657.284 8        50.400    23584546.270 1  92550896.454 8        52.300  
E01  25222665.539 1 132546021.977 8        50.200    25222669.969 1  98979192.559 7        47.800  
E21  23520763.133 1 123602502.827 8        53.600    23520768.012 1  92300619.377 8        52.800  
E27  26066323.477 1 136979456.409 7        45.600    26066329.281 1 102289878.348 7        45.600  
E15  27135784.250 1 142599544.763 6        39.700    27135791.762 1 106486717.302 7        44.700  
> 2020 05 14 22 16 00.0000000  0 22                     
R11  23005397.102 1 122933863.693 6        40.400    23005397.527 1
G12  20089086.547 1 105568896.975 8        52.700                                                  
G02  21108653.172 1 110926802.466 8        51.500                                                  
R06  23553025.930 1 125683426.511 6        36.100    23553024.473 1
R07  23803029.320 1 127419429.861 4        29.800    23803024.961 1
R12  19662384.148 1 105032932.036 8        51.200    19662383.727 1
R21  24174947.188 1 129365054.941 6        38.800    24174946.070 1
G05  22885477.461 1 120264030.678 7        42.400                                                  
R22  20261388.391 1 108156568.125 8        49.400    20261386.086 1
R23  20594636.508 1 110167435.690 8        49.600    20594635.945 1
G06  22493595.852 1 118204623.686 7        46.800    22493605.410 1  88269802.076 8        48.900  
R24  23613692.242 1 126272899.076 5        33.900    23613692.023 1
G19  24296754.570 1 127680293.233 6        38.100                                                  
G24  23353678.266 1 122724526.622 6        39.900    23353690.723 1  91644924.338 8        49.000  
R13  20324859.430 1 108533446.565 6        37.700    20324856.984 1
G25  21185915.742 1 111332689.115 8        48.600    21185925.473 1  83138166.870 8        52.400  
G29  23239327.906 1 122123522.988 7        42.800                                                  
E13  23591453.648 1 123973977.498 8        50.300    23591457.742 1  92578018.703 8        52.200  
E01  25211398.789 1 132486815.796 8        49.600    25211403.594 1  98934980.163 7        47.800  
E21  23524511.008 1 123622199.807 8        53.400    23524516.184 1  92315328.155 8        52.700  
E27  26082006.734 1 137061870.671 7        46.200    26082012.531 1 102351421.407 7        46.300  
E15  27150511.445 1 142676936.163 6        39.300    27150519.184 1 106544509.490 7        44.100  
> 2020 05 14 22 16 30.0000000  0 22                     
R11  23030201.227 1 123066397.058 7        42.100    23030200.184 1
G12  20087102.523 1 105558470.246 8        53.100                                                  
G02  21116072.570 1 110965794.587 8        50.400                                                  
R06  23549530.047 1 125664779.129 5        34.600    23549528.457 1
R07  23786631.445 1 127331673.534 5        31.300    23786632.582 1
R12  19674329.359 1 105096743.043 8        51.100    19674329.383 1
R21  24193875.547 1 129466338.585 6        40.800    24193874.281 1
G05  22868373.414 1 120174151.112 7        42.500                                                  
R22  20273156.328 1 108219388.992 8        48.900    20273154.281 1
R23  20585553.242 1 110118844.459 8        49.800    20585552.102 1
G06  22510034.508 1 118291012.714 7        45.400    22510044.703 1  88334313.353 8        48.800  
R24  23596607.031 1 126181515.020 6        36.200    23596604.156 1
G19  24312998.289 1 127765657.744 6        37.100                                                  
G24  23371207.609 1 122816643.534 6        39.500    23371220.680 1  91713712.876 8        49.400  
R13  20312656.539 1 108468281.465 6        38.100    20312653.633 1
G25  21173663.719 1 111268308.849 7        46.300    21173674.344 1  83090090.683 8        52.300  
G29  23226065.250 1 122053829.518 7        43.400                                                  
E13  23598404.648 1 124010506.155 8        50.100    23598408.938 1  92605296.601 8        52.400  
E01  25200179.289 1 132427855.879 8        50.300    25200183.863 1  98890951.678 8        48.300  
E21  23528332.578 1 123642281.085 8        53.500    23528337.613 1  92330323.899 8        52.600  
E27  26097723.453 1 137144465.030 7        45.800    26097729.238 1 102413098.958 7        46.000  
E15  27165235.820 1 142754309.583 6        39.600    27165243.188 1 106602288.333 7        43.800  
> 2020 05 14 22 17 00.0000000  0 22                     
R11  23055033.914 1 123199093.037 6        41.900    23055032.848 1
G12  20085209.297 1 105548520.993 8        53.500                                                  
G02  21123560.313 1 111005141.923 8        51.100                                                  
R06  23546161.898 1 125646800.926 5        35.100    23546160.742 1
R07  23770291.750 1 127244189.256 5        33.700    23770289.082 1
R12  19686406.875 1 105161258.029 8        51.200    19686406.875 1
R21  24212782.336 1 129567508.720 6        40.100    24212780.188 1
G05  22851315.445 1 120084504.786 7        42.800                                                  
R22  20284968.969 1 108282447.984 8        48.800    20284967.027 1
R23  20576544.008 1 110070645.592 8        49.800    20576542.270 1
G06  22526519.148 1 118377641.000 7        44.300    22526529.703 1  88399003.292 8        49.300  
R24  23579557.945 1 126090351.148 6        39.400    23579557.480 1
G19  24329246.391 1 127851037.335 6        37.400                                                  
G24  23388763.133 1 122908896.402 6        38.100    23388775.883 1  91782602.916 8        49.500  
R13  20300577.602 1 108403788.063 6        38.200    20300576.523 1
G25  21161479.688 1 111204282.295 7        47.300    21161490.430 1  83042278.675 8        52.300  
G29  23212824.891 1 121984246.895 7        44.900                                                  
E13  23605395.109 1 124047241.181 8        50.000    23605399.352 1  92632728.600 8        52.300  
E01  25189006.828 1 132369143.137 8        50.500    25189011.332 1  98847107.750 8        48.500  
E21  23532226.922 1 123662746.031 9        54.100    23532231.918 1  92345606.157 8        52.800  
E27  26113475.156 1 137227237.514 7        46.400    26113480.379 1 102474909.523 7        45.300  
E15  27179954.633 1 142831663.440 6        38.700    27179962.563 1 106660052.539 7        43.300  
> 2020 05 14 22 17 30.0000000  0 22                     
R11  23079893.227 1 123331947.156 7        42.400    23079894.395 1
G12  20083406.992 1 105539049.833 8        51.900                                                  
G02  21131115.133 1 111044841.034 8        50.900                                                  
R06  23542916.930 1 125629493.440 5        33.400    23542916.129 1
R07  23754001.375 1 127156980.831 6        38.100    23753999.375 1
R12  19698616.297 1 105226473.890 8        52.100    19698615.840 1
R21  24231666.773 1 129668563.766 6        38.600    24231664.449 1
G05  22834300.766 1 119995094.339 7        42.700                                                  
R22  20296825.094 1 108345741.497 8        48.000    20296823.930 1
R23  20567605.617 1 110022837.876 8        49.700    20567604.738 1
G06  22543049.094 1 118464505.280 7        44.500    22543060.047 1  88463869.452 8        49.800  
R24  23562552.773 1 125999406.990 7        43.400    23562552.184 1
G19  24345496.422 1 127936431.309 6        38.100                                                  
G24  23406343.484 1 123001281.436 6        38.800    23406354.949 1  91851591.681 8        48.300  
R13  20288625.797 1 108339967.960 6        38.100    20288624.504 1
G25  21149364.125 1 111140610.921 7        47.500    21149374.176 1  82994731.896 8        52.300  
G29  23199605.750 1 121914774.009 7        44.500                                                  
E13  23612424.242 1 124084180.463 8        49.800    23612428.734 1  92660313.127 8        52.400  
E01  25177881.555 1 132310678.365 8        50.900    25177886.102 1  98803449.016 8        48.800  
E21  23536194.219 1 123683593.973 8        53.300    23536199.012 1  92361174.412 8        52.600  
E27  26129259.180 1 137310186.245 7        45.500    26129265.969 1 102536851.684 7        46.200  
E15  27194671.336 1 142908995.940 6        39.400    27194678.906 1 106717800.819 7        43.600  
> 2020 05 14 22 18 00.0000000  0 22                     
R11  23104785.453 1 123464956.267 6        41.400    23104784.051 1
G12  20081695.906 1 105530058.203 8        52.400                                                  
G02  21138735.836 1 111084890.655 8        50.900                                                  
R06  23539800.664 1 125612857.572 5        33.800    23539798.844 1
R07  23737758.031 1 127070053.152 5        34.300    23737757.164 1
R12  19710955.469 1 105292388.655 8        52.800    19710955.105 1
R21  24250528.055 1 129769502.948 6        38.600    24250528.000 1
G05  22817331.086 1 119905923.789 7        42.300                                                  
R22  20308725.930 1 108409267.620 8        48.200    20308724.398 1
R23  20558740.797 1 109975420.923 8        49.900    20558740.406 1
G06  22559622.867 1 118551603.409 7        44.700    22559633.980 1  88528910.259 8        49.300  
R24  23545586.484 1 125908683.461 6        41.400    23545586.117 1
G19  24361747.852 1 128021839.196 6        36.000                                                  
G24  23423946.023 1 123093796.921 6        37.700    23423961.590 1  91920677.881 8        48.900  
R13  20276802.523 1 108276825.812 6        38.500    20276800.250 1
G25  21137315.922 1 111077297.412 7        47.200    21137325.727 1  82947452.321 8        52.100  
G29  23186406.063 1 121845411.534 7        44.900                                                  
E13  23619492.516 1 124121323.067 8        49.700    23619496.512 1  92688049.488 8        52.200  
E01  25166803.586 1 132252463.592 8        50.800    25166808.156 1  98759976.984 8        48.900  
E21  23540234.164 1 123704825.379 8        52.900    23540239.309 1  92377029.033 8        52.700  
E27  26145077.820 1 137393310.337 7        45.800    26145083.863 1 102598924.800 7        46.600  
E15  27209383.625 1 142986306.628 6        39.100    27209391.102 1 106775532.764 7        44.700  
> 2020 05 14 22 18 30.0000000  0 22                     
R11  23129705.602 1 123598118.575 7        42.600    23129705.742 1
G12  20080076.609 1 105521548.841 8        53.000                                                  
G02  21146423.758 1 111125290.578 8        51.000                                                  
R06  23536809.578 1 125596896.967 5        34.100    23536808.684 1
R07  23721573.891 1 126983411.875 5        35.200    23721572.469 1
R12  19723425.258 1 105359001.545 8        50.000    19723425.059 1
R21  24269371.922 1 129870326.992 6        37.200    24269370.418 1
G05  22800409.297 1 119816997.636 6        41.900                                                  
R22  20320669.875 1 108473025.452 7        47.300    20320668.605 1
R23  20549950.328 1 109928395.877 8        49.100    20549949.684 1
G06  22576242.031 1 118638934.490 7        44.600    22576252.988 1  88594125.008 8        49.300  
R24  23528661.102 1 125818182.868 6        37.900    23528661.527 1
G19  24378003.758 1 128107262.180 6        37.600                                                  
G24  23441579.305 1 123186440.604 6        39.000    23441590.008 1  91989859.753 7        47.800  
R13  20265105.742 1 108214365.761 6        38.400    20265103.574 1
G25  21125336.734 1 111014345.455 7        47.400    21125346.301 1  82900442.757 8        52.100  
G29  23173226.820 1 121776160.562 7        44.200                                                  
E13  23626599.227 1 124158669.205 8        50.500    23626603.246 1  92715937.837 8        52.200  
E01  25155773.891 1 132194502.013 8        51.000    25155778.305 1  98716694.005 8        48.200  
E21  23544347.742 1 123726441.887 8        53.400    23544352.770 1  92393171.221 8        52.400  
E27  26160928.742 1 137476610.127 7        45.700    26160935.441 1 102661129.133 7        46.400  
E15  27224090.961 1 143063596.005 6        40.300    27224098.090 1 106833248.809 7        43.600  
> 2020 05 14 22 19 00.0000000  0 22                     
R11  23154653.539 1 123731429.358 7        42.800    23154652.480 1
G12  20078549.156 1 105513522.205 8        53.000                                                  
G02  21154177.852 1 111166038.184 8        50.900                                                  
R06  23533944.789 1 125581612.653 5        33.300    23533943.289 1
R07  23705443.430 1 126897060.883 5        35.400    23705442.680 1
R12  19736025.852 1 105426309.478 8        52.500    19736025.242 1
R21  24288185.641 1 129971034.180 5        33.300    24288186.219 1
G05  22783533.211 1 119728318.062 6        41.300                                                  
R22  20332657.242 1 108537011.678 7        47.800    20332655.605 1
R23  20541232.883 1 109881761.340 8        50.400    20541231.824 1
G06  22592904.773 1 118726495.198 7        44.600    22592914.449 1  88659511.228 8        49.200  
R24  23511778.664 1 125727904.850 6        37.700    23511777.969 1
G19  24394261.539 1 128192699.419 6        38.100                                                  
G24  23459231.063 1 123279208.828 6        39.200    23459243.383 1  92059134.645 7        47.800  
R13  20253535.633 1 108152590.204 6        38.900    20253534.422 1
G25  21113426.367 1 110951756.590 7        46.800    21113436.148 1  82853704.344 8        52.300  
G29  23160070.586 1 121707020.599 7        43.900                                                  
E13  23633744.391 1 124196216.828 8        50.700    23633748.305 1  92743976.658 8        52.200  
E01  25144792.195 1 132136794.471 8        50.200    25144796.945 1  98673600.720 8        48.700  
E21  23548534.445 1 123748442.846 8        53.400    23548539.172 1  92409600.488 8        52.300  
E27  26176813.148 1 137560083.658 7        44.900    26176820.020 1 102723463.199 7        46.200  
E15  27238793.297 1 143140862.504 6        38.900    27238800.934 1 106890947.803 7        42.300  
> 2020 05 14 22 19 30.0000000  0 22                     
R11  23179626.695 1 123864884.894 6        40.400    23179625.473 1
G12  20077113.523 1 105505979.176 8        52.500                                                  
G02  21161997.805 1 111207131.377 8        50.800                                                  
R06  23531207.398 1 125567005.211 5        33.100    23531205.984 1
R07  23689369.102 1 126811003.465 6        36.200    23689366.340 1
R12  19748755.336 1 105494309.550 8        50.900    19748754.859 1
R21  24306987.141 1 130071623.257 5        35.400    24306984.816 1
G05  22766707.750 1 119639888.301 7        43.800                                                  
R22  20344685.156 1 108601223.936 7        47.500    20344684.512 1
R23  20532588.484 1 109835516.468 8        49.600    20532587.348 1
G06  22609609.531 1 118814282.721 7        44.000    22609620.074 1  88725066.829 8        48.900  
R24  23494937.836 1 125637849.670 6        40.400    23494937.977 1
G19  24410522.500 1 128278150.235 6        38.300                                                  
G24  23476908.227 1 123372098.468 6        39.900    23476919.656 1  92128500.233 7        47.800  
R13  20242097.063 1 108091502.081 6        38.500    20242095.176 1
G25  21101584.563 1 110889532.720 7        46.900    21101595.336 1  82807238.484 8        52.400  
G29  23146933.453 1 121637991.270 7        42.200                                                  
E13  23640927.188 1 124233964.248 8        50.100    23640931.500 1  92772164.673 8        52.200  
E01  25133859.602 1 132079342.220 8        50.300    25133863.969 1  98630698.082 8        48.100  
E21  23552794.164 1 123770827.954 8        52.400    23552799.063 1  92426316.636 8        52.500  
E27  26192730.352 1 137643729.392 7        45.900    26192737.168 1 102785925.873 7        45.700  
E15  27253492.180 1 143218104.884 6        38.300    27253499.438 1 106948628.774 6        41.600  
> 2020 05 14 22 20 00.0000000  0 22                     
R11  23204627.852 1 123998481.309 6        41.000    23204627.711 1
G12  20075770.586 1 105498920.364 8        51.600                                                  
G02  21169882.641 1 111248567.752 8        50.600                                                  
R06  23528596.422 1 125553076.030 5        32.600    23528595.531 1
R07  23673345.633 1 126725244.148 5        34.700    23673345.184 1
R12  19761614.367 1 105562998.932 8        51.200    19761613.910 1
R21  24325763.008 1 130172092.698 6        36.600    24325760.938 1
G05  22749927.750 1 119551711.161 7        43.400                                                  
R22  20356756.719 1 108665658.757 8        48.200    20356755.656 1
R23  20524015.969 1 109789660.068 8        49.400    20524014.426 1
G06  22626357.453 1 118902294.109 7        44.600    22626368.738 1  88790789.613 8        49.300  
R24  23478139.383 1 125548017.649 7        42.300    23478139.320 1
G19  24426786.313 1 128363613.667 6        38.500                                                  
G24  23494605.133 1 123465106.634 6        38.200    23494618.445 1  92197954.332 7        47.900  
R13  20230785.930 1 108031104.084 6        38.500    20230784.332 1
G25  21089815.031 1 110827675.622 8        48.100    21089824.566 1  82761046.503 8        52.800  
G29  23133818.273 1 121569072.248 7        42.000                                                  
E13  23648148.148 1 124271909.706 8        50.100    23648152.281 1  92800500.565 8        52.500  
E01  25122975.680 1 132022146.480 8        50.300    25122979.922 1  98587986.978 8        48.200  
E21  23557127.063 1 123793596.802 8        52.500    23557132.039 1  92443319.329 8        52.500  
E27  26208680.555 1 137727545.677 7        45.700    26208688.016 1 102848515.870 7        47.300  
E15  27268186.805 1 143295321.673 6        38.900    27268193.000 1 107006290.617 6        40.900  
> 2020 05 14 22 20 30.0000000  0 22                     
R11  23229653.922 1 124132215.785 7        42.200    23229654.547 1
G12  20074519.781 1 105492348.007 8        52.100                                                  
G02  21177833.016 1 111290346.279 8        49.800                                                  
R06  23526116.750 1 125539827.144 5        33.700    23526114.438 1
R07  23657386.031 1 126639787.886 6        36.200    23657381.961 1
R12  19774602.320 1 105632375.795 8        51.200    19774601.535 1
R21  24344516.438 1 130272442.764 6        39.800    24344514.652 1
G05  22733196.391 1 119463790.289 7        43.800                                                  
R22  20368868.711 1 108730314.953 8        48.600    20368868.070 1
R23  20515516.406 1 109744192.829 8        49.500    20515514.938 1
G06  22643148.156 1 118990527.741 7        45.000    22643158.980 1  88856678.353 8        49.400  
R24  23461383.000 1 125458409.807 6        41.600    23461382.047 1
G19  24443052.547 1 128449090.474 6        39.100                                                  
G24  23512326.703 1 123558230.409 6        38.600    23512339.734 1  92267494.722 8        48.300  
R13  20219606.273 1 107971400.649 6        38.400    20219604.047 1
G25  21078113.852 1 110766188.401 7        47.100    21078123.969 1  82715130.731 8        52.700  
G29  23120725.797 1 121500264.230 7        43.900                                                  
E13  23655406.453 1 124310052.754 8        49.700    23655410.746 1  92828984.014 8        52.200  
E01  25112141.242 1 131965209.681 8        51.000    25112145.266 1  98545469.270 8        48.300  
E21  23561532.625 1 123816750.318 8        53.400    23561538.313 1  92460609.288 8        52.600  
E27  26224662.000 1 137811532.103 7        44.600    26224669.516 1 102911232.958 7        46.000  
E15  27282876.359 1 143372512.882 6        39.800    27282881.633 1 107063933.438 6        39.700  
> 2020 05 14 22 21 00.0000000  0 22                     
R11  23254706.461 1 124266084.369 6        41.200    23254705.875 1
G12  20073361.867 1 105486262.231 8        52.400                                                  
G02  21185847.844 1 111332464.641 8        50.600                                                  
R06  23523762.188 1 125527259.748 5        32.300    23523758.219 1
R07  23641473.180 1 126554638.524 5        34.500    23641474.238 1
R12  19787717.211 1 105702437.268 8        51.400    19787716.988 1
R21  24363246.602 1 130372671.868 6        39.000    24363244.348 1
G05  22716514.523 1 119376128.665 7        42.800                                                  
R22  20381022.320 1 108795189.561 8        48.500    20381021.000 1
R23  20507089.039 1 109699113.272 8        49.300    20507087.719 1
G06  22659979.313 1 119078980.733 7        44.000    22659991.199 1  88922730.915 8        49.400  
R24  23444665.891 1 125369026.628 6        39.500    23444665.715 1
G19  24459320.438 1 128534579.870 6        39.600                                                  
G24  23530070.977 1 123651466.832 6        39.800    23530083.387 1  92337119.263 8        48.700  
R13  20208556.109 1 107912393.878 6        38.900    20208553.684 1
G25  21066483.664 1 110705072.837 7        46.700    21066493.961 1  82669492.484 8        53.000  
G29  23107652.563 1 121431566.807 7        43.000                                                  
E13  23662702.195 1 124348391.638 8        50.200    23662706.375 1  92857613.701 8        52.400  
E01  25101355.453 1 131908533.039 8        50.200    25101360.172 1  98503145.811 8        48.300  
E21  23566011.953 1 123840288.087 8        53.100    23566017.242 1  92478186.194 8        52.600  
E27  26240676.500 1 137895686.987 7        45.300    26240683.172 1 102974075.868 7        45.300  
E15  27297560.586 1 143449677.254 6        41.300    27297566.820 1 107121556.170 6        41.100  
> 2020 05 14 22 21 30.0000000  0 22                     
R11  23279781.891 1 124400083.468 7        42.000    23279781.730 1
G12  20072296.609 1 105480664.427 8        53.200                                                  
G02  21193926.930 1 111374921.180 8        48.800                                                  
R06  23521535.742 1 125515375.099 5        33.200    23521531.309 1
R07  23625627.367 1 126469800.601 5        33.200    23625626.777 1
R12  19800960.703 1 105773180.882 8        49.200    19800960.293 1
R21  24381953.039 1 130472779.587 6        39.900    24381951.230 1
G05  22699883.602 1 119288729.944 7        43.100                                                  
R22  20393216.516 1 108860280.394 7        47.800    20393214.703 1
R23  20498733.711 1 109654421.012 8        48.100    20498732.793 1
G06  22676852.719 1 119167650.741 7        43.400    22676864.391 1  88988945.502 8        49.300  
R24  23427993.711 1 125279868.462 6        39.400    23427993.348 1
G19  24475591.328 1 128620081.844 6        39.400                                                  
G24  23547835.625 1 123744812.992 6        40.300    23547846.148 1  92406825.697 8        48.600  
R13  20197637.367 1 107854087.027 6        38.700    20197634.867 1
G25  21054925.570 1 110644331.286 7        46.800    21054935.141 1  82624133.564 8        52.800  
G29  23094601.570 1 121362980.276 7        43.400                                                  
E13  23670034.734 1 124386925.221 8        50.000    23670039.070 1  92886388.784 8        52.300  
E01  25090620.039 1 131852118.312 7        47.700    25090624.707 1  98461017.936 8        48.700  
E21  23570564.234 1 123864210.293 8        52.900    23570569.391 1  92496050.167 8        52.600  
E27  26256722.430 1 137980009.382 7        44.900    26256729.762 1 103037043.805 7        46.400  
E15  27312239.805 1 143526813.910 6        40.900    27312245.770 1 107179158.203 7        43.100  
> 2020 05 14 22 22 00.0000000  0 22                     
R11  23304881.984 1 124534209.667 6        41.300    23304881.926 1
G12  20071324.344 1 105475555.879 8        53.200                                                  
G02  21202070.875 1 111417713.588 8        51.000                                                  
R06  23519435.438 1 125504174.293 5        34.500    23519433.016 1
R07  23609837.117 1 126385278.286 5        33.700    23609835.051 1
R12  19814331.742 1 105844604.016 8        51.600    19814331.145 1
R21  24400636.266 1 130572764.341 6        38.400    24400635.547 1
G05  22683301.484 1 119201597.003 7        42.900                                                  
R22  20405450.383 1 108925584.679 8        49.100    20405448.816 1
R23  20490451.891 1 109610115.292 8        49.500    20490450.492 1
G06  22693767.289 1 119256535.086 7        43.800    22693778.508 1  89055320.167 8        49.200  
R24  23411363.461 1 125190935.884 6        40.600    23411363.449 1
G19  24491864.070 1 128705595.389 6        37.000                                                  
G24  23565616.992 1 123838266.499 6        39.000    23565628.863 1  92476612.345 7        47.900  
R13  20186849.414 1 107796483.457 6        40.000    20186847.867 1
G25  21043438.125 1 110583965.804 7        47.500    21043447.996 1  82579055.455 8        52.800  
G29  23081570.523 1 121294504.511 7        44.100                                                  
E13  23677404.227 1 124425651.983 8        49.800    23677408.617 1  92915308.117 8        52.200  
E01  25079934.734 1 131795966.933 8        50.700    25079939.590 1  98419086.728 8        48.600  
E21  23575189.836 1 123888516.739 8        52.800    23575194.449 1  92514201.078 8        52.400  
E27  26272800.359 1 138064497.761 7        44.400    26272807.520 1 103100135.703 7        46.100  
E15  27326911.430 1 143603921.957 6        39.100    27326917.906 1 107236738.810 7        42.300  
> 2020 05 14 22 22 30.0000000  0 22                     
R11  23330006.219 1 124668459.568 6        41.100    23330005.539 1
G12  20070445.867 1 105470937.867 8        53.000                                                  
G02  21210276.922 1 111460840.548 8        49.000                                                  
R06  23517465.250 1 125493659.161 5        35.100    23517462.363 1
R07  23594109.625 1 126301076.266 6        38.000    23594108.363 1
R12  19827828.297 1 105916704.331 8        50.200    19827827.945 1
R21  24419299.281 1 130672626.244 6        36.300    24419297.898 1
G05  22666771.664 1 119114733.310 7        43.400                                                  
R22  20417723.898 1 108991100.742 8        49.100    20417722.121 1
R23  20482240.594 1 109566195.875 8        48.900    20482239.992 1
G06  22710722.219 1 119345631.787 7        44.100    22710732.801 1  89121853.408 8        49.400  
R24  23394774.344 1 125102229.849 6        40.500    23394773.934 1
G19  24508137.195 1 128791120.892 5        35.700                                                  
G24  23583420.977 1 123931823.875 6        39.800    23583432.930 1  92546476.522 8        48.500  
R13  20176194.578 1 107739586.250 6        40.100    20176192.609 1
G25  21032022.234 1 110523979.054 7        46.500    21032032.656 1  82534260.166 8        52.800  
G29  23068560.133 1 121226139.847 7        42.800                                                  
E13  23684810.516 1 124464571.051 8        49.700    23684814.449 1  92944371.049 8        52.200  
E01  25069300.078 1 131740080.920 8        49.600    25069304.746 1  98377353.684 8        49.000  
E21  23579888.359 1 123913207.866 8        52.900    23579892.926 1  92532639.242 8        52.400  
E27  26288908.531 1 138149151.328 7        44.200    26288915.945 1 103163350.984 7        45.600  
E15  27341579.531 1 143681000.822 6        39.700    27341586.094 1 107294297.692 7        42.300  
> 2020 05 14 22 23 00.0000000  0 22                     
R11  23355151.250 1 124802830.107 7        42.100    23355151.840 1
G12  20069660.555 1 105466811.671 8        51.500                                                  
G02  21218547.234 1 111504300.305 8        51.100                                                  
R06  23515619.086 1 125483830.914 5        32.900    23515618.520 1
R07  23578440.641 1 126217199.073 6        39.600    23578438.719 1
R12  19841452.219 1 105989479.556 8        50.700    19841451.715 1
R21  24437937.148 1 130772364.689 6        36.400    24437935.969 1
G05  22650294.648 1 119028142.374 7        43.500                                                  
R22  20430036.531 1 109056826.184 8        48.500    20430034.742 1
R23  20474103.867 1 109522662.322 8        49.800    20474101.965 1
G06  22727716.344 1 119434938.568 7        43.600    22727727.422 1  89188543.514 8        48.900  
R24  23378226.766 1 125013750.876 6        39.300    23378227.480 1
G19  24524414.570 1 128876658.276 6        36.900                                                  
G24  23601242.898 1 124025483.195 6        39.800    23601255.379 1  92616416.841 7        47.700  
R13  20165671.609 1 107683399.131 6        40.000    20165670.859 1
G25  21020679.609 1 110464373.464 7        47.300    21020690.238 1  82489749.502 8        52.800  
G29  23055573.578 1 121157886.618 7        45.300                                                  
E13  23692252.672 1 124503681.295 8        50.300    23692257.023 1  92973576.757 8        52.100  
E01  25058716.109 1 131684462.131 8        50.300    25058720.680 1  98335820.170 8        48.000  
E21  23584659.797 1 123938283.860 8        53.000    23584665.078 1  92551364.817 8        52.600  
E27  26305049.250 1 138233969.101 7        44.700    26305056.461 1 103226688.855 7        46.300  
E15  27356240.977 1 143758049.940 6        38.400    27356248.598 1 107351834.357 7        42.300  
> 2020 05 14 22 23 30.0000000  0 22                     
R11  23380318.984 1 124937317.729 6        41.400    23380319.527 1
G12  20068968.992 1 105463178.096 8        52.400                                                  
G02  21226880.180 1 111548091.437 8        50.500                                                  
R06  23513908.938 1 125474690.882 5        35.600    23513907.559 1
R07  23562833.164 1 126133651.182 6        38.800    23562831.195 1
R12  19855202.156 1 106062926.920 8        51.000    19855201.395 1
R21  24456554.906 1 130871978.912 6        36.700    24456551.863 1
G05  22633870.500 1 118941827.633 7        44.300                                                  
R22  20442385.938 1 109122758.713 8        48.200    20442385.102 1
R23  20466037.305 1 109479514.244 8        49.400    20466035.574 1
G06  22744750.969 1 119524453.045 7        44.500    22744761.797 1  89255388.717 8        49.300  
R24  23361724.828 1 124925499.470 6        38.700    23361724.641 1
G19  24540693.539 1 128962207.408 5        34.500                                                  
G24  23619084.789 1 124119241.012 6        39.000    23619096.121 1  92686430.751 7        47.800  
R13  20155284.148 1 107627924.412 6        39.900    20155281.824 1
G25  21009410.945 1 110405151.314 7        47.800    21009420.820 1  82445525.167 8        53.200  
G29  23042605.664 1 121089744.905 7        44.300                                                  
E13  23699731.320 1 124542981.515 8        50.300    23699735.641 1  93002924.328 8        52.100  
E01  25048183.422 1 131629112.210 8        50.600    25048188.043 1  98294487.440 8        48.000  
E21  23589505.008 1 123963744.766 8        53.300    23589510.426 1  92570377.822 8        52.800  
E27  26321221.070 1 138318949.845 7        44.900    26321228.484 1 103290148.436 7        46.300  
E15  27370896.977 1 143835068.537 6        39.100    27370904.254 1 107409348.174 7        43.100  
> 2020 05 14 22 24 00.0000000  0 22                     
R11  23405506.313 1 125071918.267 6        40.800    23405506.680 1
G12  20068371.578 1 105460037.897 8        51.900                                                  
G02  21235276.070 1 111592210.951 8        50.400                                                  
R06  23512326.477 1 125466239.814 5        35.500    23512323.594 1
R07  23547287.242 1 126050436.137 6        39.200    23547286.141 1
R12  19869076.789 1 106137042.884 8        51.600    19869076.086 1
R21  24475145.266 1 130971467.334 6        38.300    24475143.883 1
G05  22617498.813 1 118855791.494 7        45.000                                                  
R22  20454775.805 1 109188895.726 8        48.200    20454774.977 1
R23  20458041.852 1 109436749.994 8        49.300    20458040.898 1
G06  22761822.859 1 119614172.165 7        43.600    22761834.406 1  89322386.778 8        49.100  
R24  23345265.039 1 124837475.728 6        40.900    23345264.898 1
G19  24556974.703 1 129047767.531 5        35.000                                                  
G24  23636944.125 1 124213094.873 6        39.200    23636957.348 1  92756516.328 7        47.900  
R13  20145027.883 1 107573165.115 6        39.900    20145027.055 1
G25  20998214.961 1 110346314.223 7        47.200    20998224.410 1  82401588.375 8        53.100  
G29  23029659.891 1 121021713.983 7        44.800                                                  
E13  23707245.461 1 124582469.801 8        49.900    23707249.973 1  93032412.327 8        52.100  
E01  25037701.797 1 131574032.199 8        50.300    25037706.590 1  98253356.258 8        48.500  
E21  23594423.547 1 123989589.945 8        53.200    23594428.324 1  92589677.789 8        52.800  
E27  26337423.789 1 138404091.727 7        44.900    26337430.215 1 103353728.347 7        45.700  
E15  27385548.133 1 143912055.010 6        40.200    27385553.871 1 107466838.094 7        42.500  
> 2020 05 14 22 24 30.0000000  0 22                     
R11  23430716.789 1 125206627.708 6        41.200    23430716.113 1
G12  20067868.203 1 105457391.598 8        51.600                                                  
G02  21243733.648 1 111636656.521 8        50.700                                                  
R06  23510872.352 1 125458478.353 6        36.400    23510870.352 1
R07  23531807.023 1 125967557.986 6        41.000    23531804.219 1
R12  19883075.930 1 106211824.799 8        51.500    19883075.566 1
R21  24493714.531 1 131070829.078 6        37.800    24493711.906 1
G05  22601178.906 1 118770036.921 7        44.600                                                  
R22  20467203.398 1 109255234.126 8        48.500    20467202.340 1
R23  20450120.203 1 109394368.807 8        48.900    20450119.145 1
G06  22778934.891 1 119704093.266 7        43.600    22778945.945 1  89389535.628 8        48.900  
R24  23328845.031 1 124749679.624 6        41.300    23328845.094 1
G19  24573259.156 1 129133337.890 6        36.800                                                  
G24  23654822.398 1 124307040.246 6        40.100    23654834.016 1  92826670.252 7        47.600  
R13  20134908.375 1 107519123.616 6        40.400    20134907.027 1
G25  20987091.336 1 110287864.073 7        46.900    20987101.715 1  82357940.558 8        53.200  
G29  23016735.430 1 120953793.724 7        43.900                                                  
E13  23714795.445 1 124622144.535 8        50.000    23714799.656 1  93062039.567 8        52.000  
E01  25027271.898 1 131519223.354 8        50.400    25027276.934 1  98212427.578 8        48.200  
E21  23599414.563 1 124015819.038 9        54.200    23599419.246 1  92609264.433 8        52.600  
E27  26353655.750 1 138489393.166 7        45.600    26353663.148 1 103417427.407 7        46.200  
E15  27400191.414 1 143989008.384 6        38.600    27400198.191 1 107524303.242 7        43.100  
> 2020 05 14 22 25 00.0000000  0 22                     
R11  23455946.703 1 125341443.540 6        39.600    23455945.559 1
G12  20067458.789 1 105455240.971 8        52.900                                                  
G02  21252253.070 1 111681427.372 8        51.100                                                  
R06  23509544.727 1 125451408.316 5        35.600    23509543.711 1
R07  23516386.156 1 125885021.537 6        40.500    23516384.203 1
R12  19897199.641 1 106287270.323 8        51.500    19897198.914 1
R21  24512256.492 1 131170064.157 6        36.400    24512255.680 1
G05  22584915.242 1 118684567.681 7        44.900                                                  
R22  20479668.859 1 109321772.532 8        48.700    20479667.398 1
R23  20442268.891 1 109352370.529 8        49.800    20442267.750 1
G06  22796084.758 1 119794214.472 7        43.700    22796095.590 1  89456833.909 8        49.200  
R24  23312470.141 1 124662112.337 6        39.600    23312469.129 1
G19  24589545.344 1 129218918.687 6        36.200                                                  
G24  23672716.539 1 124401075.460 6        40.400    23672728.875 1  92896891.301 7        47.300  
R13  20124924.836 1 107465803.312 6        40.000    20124921.895 1
G25  20976042.836 1 110229803.760 7        46.500    20976053.008 1  82314583.847 8        53.000  
G29  23003831.750 1 120885984.751 7        45.300                                                  
E13  23722380.828 1 124662005.112 8        50.300    23722384.918 1  93091805.590 8        52.000  
E01  25016894.500 1 131464687.997 8        50.800    25016899.270 1  98171703.122 8        48.600  
E21  23604479.109 1 124042432.671 8        53.900    23604483.836 1  92629138.250 8        52.700  
E27  26369917.891 1 138574853.610 7        44.600    26369925.121 1 103481245.200 7        45.900  
E15  27414828.656 1 144065928.443 6        38.500    27414836.277 1 107581743.518 7        43.700  
> 2020 05 14 22 25 30.0000000  0 22                     
R11  23481194.273 1 125476362.164 6        38.700    23481193.277 1
G12  20067144.047 1 105453587.270 8        53.300                                                  
G02  21260834.320 1 111726521.461 8        51.400                                                  
R06  23508349.031 1 125445030.891 5        35.800    23508348.863 1
R07  23501030.563 1 125802831.532 6        40.400    23501030.742 1
R12  19911446.836 1 106363376.792 8        52.000    19911446.473 1
R21  24530777.867 1 131269171.945 6        38.700    24530776.809 1
G05  22568706.172 1 118599387.070 7        45.700                                                  
R22  20492171.438 1 109388508.877 8        48.600    20492169.859 1
R23  20434488.305 1 109310754.563 8        49.000    20434487.586 1
G06  22813272.047 1 119884533.606 7        43.500    22813283.055 1  89524280.019 8        49.700  
R24  23296137.516 1 124574774.673 6        38.500    23296136.270 1
G19  24605833.109 1 129304509.904 6        37.700                                                  
G24  23690627.656 1 124495197.740 6        40.400    23690640.102 1  92967177.318 7        47.600  
R13  20115074.648 1 107413207.406 6        40.200    20115072.363 1
G25  20965069.203 1 110172135.664 7        46.800    20965078.965 1  82271520.027 8        53.000  
G29  22990950.289 1 120818287.283 7        45.100                                                  
E13  23730001.383 1 124702050.449 8        50.100    23730005.449 1  93121709.567 8        52.100  
E01  25006569.242 1 131410427.889 8        50.900    25006573.883 1  98131184.209 8        49.100  
E21  23609616.469 1 124069430.976 9        54.000    23609621.480 1  92649299.309 8        52.700  
E27  26386211.586 1 138660471.974 7        46.200    26386218.172 1 103545180.922 7        45.700  
E15  27429459.938 1 144142814.538 6        37.700    27429466.992 1 107639158.440 7        43.900  
> 2020 05 14 22 26 00.0000000  0 22                     
R11  23506459.180 1 125611379.847 6        39.200    23506460.410 1
G12  20066923.805 1 105452431.089 8        53.200                                                  
G02  21269477.109 1 111771936.635 8        51.200                                                  
R06  23507285.844 1 125439346.400 6        36.400    23507284.105 1
R07  23485744.516 1 125720991.672 6        40.900    23485742.840 1
R12  19925817.172 1 106440141.215 8        51.600    19925816.938 1
R21  24549274.609 1 131368151.431 5        34.600    24549273.074 1
G05  22552552.508 1 118514497.954 7        45.100                                                  
R22  20504709.641 1 109455440.446 8        48.800    20504708.066 1
R23  20426781.047 1 109269520.312 8        49.600    20426779.402 1
G06  22830495.570 1 119975047.888 7        42.800    22830506.824 1  89591871.834 8        49.600  
R24  23279849.680 1 124487666.390 6        40.200    23279847.297 1
G19  24622122.430 1 129390111.133 6        37.800                                                  
G24  23708553.922 1 124589404.009 6        39.400    23708566.668 1  93037526.069 7        47.000  
R13  20105359.641 1 107361338.144 6        39.800    20105358.785 1
G25  20954169.844 1 110114861.666 7        47.100    20954180.164 1  82228750.485 8        53.000  
G29  22978088.086 1 120750701.075 7        44.700                                                  
E13  23737656.430 1 124742278.842 8        50.100    23737660.605 1  93151750.262 8        51.900  
E01  24996296.492 1 131356444.278 8        50.800    24996301.215 1  98090871.773 8        49.200  
E21  23614827.172 1 124096813.477 8        53.400    23614832.488 1  92669747.278 8        52.700  
E27  26402533.531 1 138746246.635 7        45.700    26402540.375 1 103609233.344 7        44.900  
E15  27444083.500 1 144219665.549 6        36.700    27444091.520 1 107696547.115 7        43.400  
> 2020 05 14 22 26 30.0000000  0 22                     
R11  23531745.250 1 125746492.763 6        40.700    23531744.895 1
G12  20066798.805 1 105451773.207 8        53.300                                                  
G02  21278179.906 1 111817671.067 8        50.500                                                  
R06  23506349.281 1 125434355.775 6        37.100    23506348.684 1
R07  23470522.141 1 125639505.851 6        40.500    23470520.859 1
R12  19940310.703 1 106517560.529 8        52.000    19940310.176 1
R21  24567745.188 1 131467001.904 5        33.100    24567744.449 1
G05  22536454.875 1 118429903.867 7        45.200                                                  
R22  20517283.992 1 109522564.847 8        48.700    20517283.023 1
R23  20419143.477 1 109228666.686 8        49.600    20419142.523 1
G06  22847757.313 1 120065754.834 7        42.900    22847768.449 1  89659607.518 8        49.900  
R24  23263601.297 1 124400787.964 6        40.300    23263601.098 1
G19  24638412.742 1 129475721.924 6        37.900                                                  
G24  23726496.703 1 124683691.507 6        40.000    23726508.105 1  93107935.520 7        46.200  
R13  20095783.047 1 107310198.634 6        40.800    20095782.145 1
G25  20943347.148 1 110057983.817 7        47.200    20943357.008 1  82186276.788 8        53.400  
G29  22965248.148 1 120683226.083 7        44.500                                                  
E13  23745346.297 1 124782688.949 8        50.000    23745350.262 1  93181926.642 8        51.900  
E01  24986076.398 1 131302738.662 8        51.000    24986081.734 1  98050766.962 8        49.100  
E21  23620111.172 1 124124580.019 9        54.200    23620116.289 1  92690482.025 8        52.600  
E27  26418885.367 1 138832176.219 7        45.600    26418892.590 1 103673401.479 7        45.600  
E15  27458700.945 1 144296480.478 6        37.900    27458708.223 1 107753908.867 7        42.700  
> 2020 05 14 22 27 00.0000000  0 22                     
R11  23557045.375 1 125881697.344 6        38.400    23557045.738 1
G12  20066768.555 1 105451614.335 8        52.800                                                  
G02  21286942.969 1 111863722.590 8        50.700                                                  
R06  23505545.008 1 125430060.437 6        36.100    23505543.047 1
R07  23455366.328 1 125558378.663 6        39.400    23455365.430 1
R12  19954924.984 1 106595631.772 8        52.100    19954924.914 1
R21  24586195.945 1 131565721.828 6        37.800    24586193.918 1
G05  22520414.016 1 118345607.602 7        45.700                                                  
R22  20529895.039 1 109589879.577 8        48.900    20529893.309 1
R23  20411576.609 1 109188192.358 8        49.300    20411575.984 1
G06  22865052.898 1 120156651.842 7        42.500    22865064.844 1  89727485.151 8        49.500  
R24  23247397.805 1 124314139.801 6        40.700    23247397.359 1
G19  24654707.188 1 129561341.793 6        38.400                                                  
G24  23744453.547 1 124778056.912 6        39.200    23744465.957 1  93178403.093 7        46.800  
R13  20086343.273 1 107259791.193 6        41.200    20086342.270 1
G25  20932599.125 1 110001504.115 7        47.000    20932609.297 1  82144100.410 8        53.500  
G29  22952429.570 1 120615862.178 7        45.200                                                  
E13  23753070.422 1 124823279.268 8        50.000    23753074.527 1  93212237.596 8        52.000  
E01  24975910.117 1 131249312.497 8        51.200    24975914.852 1  98010870.810 8        49.100  
E21  23625468.055 1 124152730.299 8        53.800    23625473.148 1  92711503.329 8        52.900  
E27  26435266.563 1 138918259.311 7        45.000    26435273.281 1 103737684.223 7        45.500  
E15  27473310.188 1 144373258.378 6        37.600    27473318.840 1 107811242.996 7        42.200  
> 2020 05 14 22 27 30.0000000  0 22                     
R11  23582363.156 1 126016990.642 6        38.300    23582365.137 1
G12  20066833.539 1 105451955.854 8        53.400                                                  
G02  21295766.109 1 111910089.639 8        51.500                                                  
R06  23504872.094 1 125426461.339 6        37.100    23504870.367 1
R07  23440278.680 1 125477614.653 6        38.300    23440277.262 1
R12  19969661.984 1 106674352.443 8        51.300    19969661.855 1
R21  24604619.438 1 131664312.019 5        34.300    24604618.500 1
G05  22504429.156 1 118261612.786 7        44.600                                                  
R22  20542539.977 1 109657382.872 8        48.800    20542538.930 1
R23  20404082.086 1 109148097.637 8        49.400    20404080.594 1
G06  22882386.625 1 120247736.936 7        42.600    22882398.297 1  89795503.224 8        49.900  
R24  23231236.102 1 124227722.464 6        39.600    23231236.645 1
G19  24671003.563 1 129646971.077 6        39.200                                                  
G24  23762425.281 1 124872497.652 6        39.200    23762437.414 1  93248926.941 7        46.100  
R13  20077042.508 1 107210119.312 6        41.300    20077040.531 1
G25  20921927.539 1 109945425.204 7        47.300    20921937.695 1  82102223.305 8        53.600  
G29  22939630.930 1 120548609.815 7        44.100                                                  
E13  23760828.508 1 124864048.945 8        50.200    23760832.512 1  93242682.486 8        51.900  
E01  24965796.813 1 131196167.762 8        51.500    24965801.438 1  97971184.817 8        48.800  
E21  23630897.969 1 124181264.629 8        53.900    23630902.875 1  92732811.420 8        52.500  
E27  26451676.664 1 139004494.995 7        45.100    26451683.738 1 103802080.935 7        45.300  
E15  27487913.930 1 144449998.871 6        37.700    27487921.496 1 107868549.160 6        41.300  
> 2020 05 14 22 28 00.0000000  0 22                     
R11  23607699.594 1 126152369.375 6        38.600    23607699.305 1
G12  20066993.961 1 105452799.122 8        53.000                                                  
G02  21304648.961 1 111956770.590 8        50.300                                                  
R06  23504326.547 1 125423559.572 6        36.800    23504324.918 1
R07  23425258.813 1 125397218.359 6        38.600    23425257.676 1
R12  19984519.414 1 106753719.881 8        50.800    19984519.496 1
R21  24623021.336 1 131762771.64615        33.000    24623017.328 1
G05  22488503.797 1 118177922.533 7        45.700                                                  
R22  20555221.047 1 109725072.856 8        48.700    20555219.391 1
R23  20396657.602 1 109108381.801 8        49.200    20396656.121 1
G06  22899755.242 1 120339008.162 7        43.000    22899766.582 1  89863660.305 8        49.500  
R24  23215118.711 1 124141536.984 6        38.900    23215118.477 1
G19  24687298.922 1 129732610.131 6        37.000                                                  
G24  23780410.477 1 124967011.198 6        38.900    23780422.883 1  93319505.158 7        46.100  
R13  20067878.797 1 107161186.303 6        40.700    20067876.758 1
G25  20911333.063 1 109889749.724 7        47.400    20911343.020 1  82060647.470 8        53.700  
G29  22926854.297 1 120481469.706 7        44.600                                                  
E13  23768620.758 1 124904997.143 8        49.900    23768624.910 1  93273260.690 8        52.000  
E01  24955737.648 1 131143306.507 8        50.700    24955742.172 1  97931710.514 8        49.000  
E21  23636400.938 1 124210183.345 8        53.100    23636405.914 1  92754406.550 8        52.400  
E27  26468114.883 1 139090882.472 7        44.000    26468122.527 1 103866590.990 7        45.100  
E15  27502512.055 1 144526701.645 6        39.700    27502516.973 1 107925827.159 6        40.800  
> 2020 05 14 22 28 30.0000000  0 23                     
R11  23633050.953 1 126287829.296 6        40.600    23633051.094 1
G12  20067250.094 1 105454144.159 8        53.500                                                  
G02  21313591.758 1 112003762.839 8        50.800                                                  
R06  23503913.359 1 125421355.575 6        37.000    23503911.926 1
R07  23410310.969 1 125317193.284 6        40.200    23410308.699 1
R12  19999498.289 1 106833730.284 8        51.200    19999497.797 1
R21  24641396.430 1 131861099.794 6        36.200    24641392.645 1
G05  22472636.203 1 118094539.775 7        45.600                                                  
R22  20567935.422 1 109792946.398 8        48.700    20567934.055 1
R23  20389303.336 1 109069043.523 8        49.900    20389302.172 1
G06  22917158.281 1 120430462.345 7        43.400    22917169.836 1  89931953.999 8        49.300  
R14  23969371.391 1 127770179.78615        32.700    23969369.914 1
R24  23199044.992 1 124055582.873 6        39.900    23199045.145 1
G19  24703596.969 1 129818257.334 6        38.100                                                  
G24  23798408.328 1 125061594.198 6        37.600    23798421.527 1  93390135.228 7        46.100  
R13  20058852.852 1 107112993.705 6        40.700    20058851.707 1
G25  20900815.500 1 109834478.919 7        47.500    20900825.230 1  82019373.817 8        53.500  
G29  22914099.063 1 120414440.526 7        44.200                                                  
E13  23776446.484 1 124946121.664 8        50.300    23776450.535 1  93303970.555 8        51.900  
E01  24945732.734 1 131090729.372 8        50.900    24945737.109 1  97892448.368 8        48.900  
E21  23641977.211 1 124239485.334 9        54.200    23641981.922 1  92776287.907 8        52.400  
E27  26484582.047 1 139177419.530 7        43.700    26484590.121 1 103931212.730 7        45.000  
E15  27517100.672 1 144603364.963 6        40.200    27517106.777 1 107983075.739 6        40.600  
> 2020 05 14 22 29 00.0000000  0 23                     
R11  23658415.930 1 126423366.531 6        40.300    23658414.105 1
G12  20067601.508 1 105455991.552 8        51.400                                                  
G02  21322592.750 1 112051064.085 8        50.000                                                  
R06  23503629.141 1 125419849.488 5        35.400    23503629.594 1
R07  23395431.289 1 125237543.234 6        41.000    23395429.836 1
R12  20014595.063 1 106914380.280 8        51.500    20014595.508 1
R21  24659742.586 1 131959295.490 5        35.900    24659742.820 1
G05  22456827.773 1 118011466.863 7        45.700                                                  
R22  20580684.281 1 109861000.848 8        48.800    20580682.914 1
R23  20382019.641 1 109030081.400 8        49.700    20382018.793 1
G06  22934595.813 1 120522096.536 7        42.700    22934607.520 1  90000382.098 8        49.300  
R14  23946106.148 1 127646167.490 5        33.300    23946105.781 1
R24  23183015.672 1 123969859.821 6        40.800    23183015.320 1
G19  24719896.383 1 129903912.009 6        37.600                                                  
G24  23816418.289 1 125156243.120 6        36.700    23816432.391 1  93460814.543 7        45.600  
R13  20049968.273 1 107065543.415 6        41.300    20049966.027 1
G25  20890375.461 1 109779614.578 7        47.600    20890385.023 1  81978403.710 8        53.700  
G29  22901366.000 1 120347522.316 7        45.300                                                  
E13  23784305.445 1 124987420.879 8        49.700    23784309.539 1  93334810.877 8        52.000  
E01  24935781.680 1 131038437.622 8        51.300    24935786.082 1  97853399.354 8        49.400  
E21  23647626.039 1 124269170.143 8        53.100    23647630.781 1  92798455.122 8        52.300  
E27  26501078.648 1 139264104.482 7        44.600    26501085.012 1 103995944.928 7        45.000  
E15  27531680.336 1 144679987.690 6        39.100    27531687.430 1 108040293.972 6        41.300  
> 2020 05 14 22 29 30.0000000  0 23                     
R11  23683791.453 1 126558978.142 6        39.200    23683791.852 1
G12  20068049.180 1 105458342.558 8        51.700                                                  
G02  21331652.500 1 112098673.009 8        51.500                                                  
R06  23503480.773 1 125419042.554 6        36.500    23503478.098 1
R07  23380623.156 1 125158273.158 6        41.200    23380621.793 1
R12  20029812.750 1 106995667.725 8        50.600    20029812.586 1
R21  24678069.453 1 132057358.744 5        34.600    24678067.535 1
G05  22441079.625 1 117928708.389 7        46.700                                                  
R22  20593467.125 1 109929234.977 8        48.300    20593465.453 1
R23  20374806.109 1 108991495.324 8        49.800    20374805.203 1
G06  22952067.375 1 120613909.128 7        43.400    22952078.039 1  90068943.452 8        48.800  
R14  23922876.828 1 127522340.409 5        33.200    23922874.883 1
R24  23167029.781 1 123884369.144 6        40.600    23167028.668 1
G19  24736197.617 1 129989575.086 6        36.600                                                  
G24  23834443.352 1 125250956.224 6        38.100    23834455.957 1  93531541.768 7        45.600  
R13  20041221.781 1 107018839.109 6        41.300    20041219.527 1
G25  20880012.563 1 109725159.568 7        47.500    20880022.512 1  81937739.257 8        53.500  
G29  22888652.516 1 120280715.612 7        45.000                                                  
E13  23792197.438 1 125028894.220 8        50.500    23792201.703 1  93365781.231 8        52.000  
E01  24925885.664 1 130986433.533 8        51.000    24925889.977 1  97814565.125 8        49.000  
E21  23653347.633 1 124299238.283 8        53.600    23653352.379 1  92820908.585 8        52.300  
E27  26517602.477 1 139350936.817 7        45.600    26517610.023 1 104060787.192 7        45.800  
E15  27546253.563 1 144756569.788 6        41.200    27546260.785 1 108097481.883 6        41.000  
> 2020 05 14 22 30 00.0000000  0 23                     
R11  23709184.836 1 126694661.265 6        39.400    23709183.828 1
G12  20068592.070 1 105461198.706 8        51.500                                                  
G02  21340770.242 1 112146588.202 8        49.900                                                  
R06  23503460.320 1 125418935.998 6        36.800    23503458.645 1
R07  23365885.734 1 125079387.798 6        40.200    23365884.781 1
R12  20045148.820 1 107077589.977 8        49.900    20045148.621 1
R21  24696370.109 1 132155289.444 5        33.300    24696369.422 1
G05  22425391.023 1 117846266.845 7        45.200                                                  
R22  20606283.172 1 109997646.776 8        49.300    20606281.887 1
R23  20367663.797 1 108953285.223 8        49.500    20367662.609 1
G06  22969572.000 1 120705898.400 7        43.700    22969583.344 1  90137636.707 8        49.200  
R14  23899681.188 1 127398702.698 5        32.600    23899680.344 1
R24  23151084.539 1 123799111.695 6        41.100    23151083.859 1
G19  24752500.211 1 130075246.597 6        37.300                                                  
G24  23852478.516 1 125345730.763 6        37.600    23852490.938 1  93602314.905 7        45.500  
R13  20032615.422 1 106972883.897 6        41.400    20032613.957 1
G25  20869727.734 1 109671116.624 7        46.500    20869738.461 1  81897382.517 8        53.700  
G29  22875960.789 1 120214021.386 7        44.100                                                  
E13  23800122.633 1 125070540.960 8        49.500    23800126.688 1  93396881.070 8        52.000  
E01  24916044.859 1 130934719.262 8        50.300    24916049.066 1  97775947.339 8        48.700  
E21  23659142.648 1 124329690.158 8        51.300    23659147.414 1  92843648.614 8        52.200  
E27  26534154.109 1 139437915.744 7        44.900    26534159.938 1 104125738.912 7        44.900  
E15  27560818.070 1 144833110.996 6        39.800    27560826.887 1 108154639.287 6        41.200  
> 2020 05 14 22 30 30.0000000  0 23                     
R11  23734588.359 1 126830412.220 6        37.900    23734586.988 1
G12  20069232.563 1 105464561.230 8        52.100                                                  
G02  21349945.875 1 112194807.660 8        49.400                                                  
R06  23503570.531 1 125419530.487 6        37.600    23503570.605 1
R07  23351221.656 1 125000891.109 6        40.700    23351220.719 1
R12  20060603.141 1 107160143.715 8        50.800    20060602.871 1
R21  24714645.445 1 132253086.78014        28.400    24714644.758 1
G05  22409764.211 1 117764145.873 7        45.900                                                  
R22  20619132.492 1 110066233.972 8        49.700    20619130.574 1
R23  20360590.523 1 108915450.027 8        50.200    20360589.688 1
G06  22987110.672 1 120798061.693 7        43.400    22987121.027 1  90206459.932 8        48.800  
R14  23876523.992 1 127275258.099 5        32.400    23876521.621 1
R24  23135184.680 1 123714087.732 6        40.800    23135184.547 1
G19  24768803.438 1 130160926.228 5        35.900                                                  
G24  23870525.594 1 125440564.067 6        38.700    23870537.480 1  93673131.911 7        45.100  
R13  20024150.773 1 106927679.788 6        41.100    20024148.324 1
G25  20859522.508 1 109617487.693 7        47.200    20859533.344 1  81857334.943 8        53.800  
G29  22863289.672 1 120147439.004 7        43.800                                                  
E13  23808080.406 1 125112359.595 8        49.500    23808084.617 1  93428109.264 8        52.000  
E01  24906259.352 1 130883296.106 8        50.700    24906263.484 1  97737546.942 8        49.000  
E21  23665009.633 1 124360525.308 8        51.000    23665015.070 1  92866674.852 8        52.100  
E27  26550733.117 1 139525039.782 7        44.300    26550739.207 1 104190798.966 7        44.700  
E15  27575376.031 1 144909610.404 6        41.200    27575382.988 1 108211765.432 6        41.000  
> 2020 05 14 22 31 00.0000000  0 22                     
R11  23760004.438 1 126966227.302 6        39.100    23760003.125 1
G12  20069968.797 1 105468429.925 8        51.800                                                  
G02  21359179.469 1 112243329.238 8        50.600                                                  
R06  23503812.547 1 125420826.572 6        37.900    23503813.516 1
R07  23336631.281 1 124922787.161 6        40.400    23336630.758 1
R12  20076175.625 1 107243325.801 8        51.500    20076175.449 1
G05  22394199.227 1 117682348.929 7        46.600                                                  
R22  20632013.383 1 110134994.394 8        49.200    20632011.668 1
R23  20353587.422 1 108877988.738 8        50.000    20353586.059 1
G06  23004681.359 1 120890396.519 7        43.000    23004691.809 1  90275411.273 8        48.800  
R14  23853406.164 1 127152010.120 5        34.300    23853404.207 1
R24  23119328.797 1 123629297.244 6        41.100    23119327.738 1
G19  24785109.969 1 130246613.620 6        38.200                                                  
G24  23888582.156 1 125535452.727 6        37.600    23888595.184 1  93743990.242 7        45.900  
R13  20015827.359 1 106883229.743 6        41.100    20015824.156 1
G25  20849396.891 1 109564274.764 7        47.100    20849407.297 1  81817598.022 9        54.100  
G29  22850642.266 1 120080968.615 7        43.900                                                  
E13  23816070.688 1 125154348.708 8        50.100    23816074.773 1  93459464.776 8        52.000  
E01  24896529.766 1 130832165.523 8        51.800    24896533.926 1  97699365.023 8        49.200  
E21  23670950.281 1 124391743.415 8        51.700    23670955.527 1  92889987.075 8        52.000  
E27  26567339.242 1 139612307.406 7        44.700    26567347.137 1 104255966.261 7        45.800  
E15  27589925.914 1 144986067.074 6        40.900    27589933.773 1 108268859.671 6        41.100  
> 2020 05 14 22 31 30.0000000  0 22                     
R11  23785429.609 1 127102102.582 6        38.900    23785430.688 1
G12  20070800.961 1 105472805.086 8        52.400                                                  
G02  21368470.164 1 112292150.585 8        50.600                                                  
R06  23504188.148 1 125422824.013 6        36.800    23504186.539 1
R07  23322115.273 1 124845079.643 6        41.400    23322114.680 1
R12  20091864.609 1 107327132.396 8        50.900    20091863.988 1
G05  22378695.445 1 117600877.598 7        46.100                                                  
R22  20644925.945 1 110203925.130 8        48.900    20644924.332 1
R23  20346653.945 1 108840899.786 8        49.400    20346652.734 1
G06  23022284.258 1 120982900.015 7        43.000    23022295.117 1  90344488.522 8        49.200  
R14  23830319.820 1 127028962.141 5        34.200    23830319.125 1
R24  23103515.227 1 123544740.201 6        40.500    23103514.613 1
G19  24801417.867 1 130332308.104 6        37.700                                                  
G24  23906649.203 1 125630393.618 6        39.500    23906660.574 1  93814887.607 7        45.100  
R13  20007643.469 1 106839535.572 6        40.600    20007641.570 1
G25  20839350.172 1 109511479.383 7        47.600    20839360.738 1  81778172.923 9        54.200  
G29  22838013.734 1 120014610.153 7        43.800                                                  
E13  23824093.281 1 125196506.500 8        49.800    23824097.215 1  93490946.239 8        52.000  
E01  24886855.898 1 130781328.535 8        50.700    24886860.074 1  97661402.337 8        49.500  
E21  23676963.828 1 124423343.752 8        52.000    23676968.969 1  92913584.733 8        52.000  
E27  26583973.961 1 139699716.792 7        45.300    26583978.836 1 104321239.442 7        44.000  
E15  27604466.500 1 145062479.697 6        40.600    27604473.129 1 108325921.012 6        39.800  
> 2020 05 14 22 32 00.0000000  0 22                     
R11  23810871.219 1 127238034.750 6        40.200    23810869.793 1
G12  20071730.188 1 105477688.078 8        51.400                                                  
G02  21377816.648 1 112341269.828 8        51.000                                                  
R06  23504695.336 1 125425524.008 6        38.300    23504694.051 1
R07  23307673.914 1 124767772.947 7        42.000    23307672.895 1
R12  20107668.844 1 107411560.745 8        50.600    20107668.656 1
G05  22363254.656 1 117519735.623 7        46.400                                                  
R22  20657870.508 1 110273024.327 8        49.500    20657869.191 1
R23  20339790.367 1 108804182.852 8        50.500    20339789.273 1
G06  23039918.805 1 121075570.008 7        43.500    23039929.223 1  90413690.130 8        49.000  
R14  23807276.000 1 126906118.237 5        31.700    23807274.305 1
R24  23087747.594 1 123460416.749 7        42.000    23087746.605 1
G19  24817725.914 1 130418009.449 6        39.100                                                  
G24  23924725.289 1 125725384.187 6        38.900    23924735.793 1  93885822.050 7        44.200  
R13  19999602.797 1 106796600.144 6        41.400    19999601.695 1
G25  20829383.617 1 109459103.898 7        47.700    20829393.887 1  81739061.375 9        54.100  
G29  22825407.758 1 119948363.545 7        43.700                                                  
E13  23832147.242 1 125238831.865 8        50.100    23832151.535 1  93522552.849 8        52.300  
E01  24877237.469 1 130730786.872 8        50.900    24877242.258 1  97623660.183 8        49.600  
E21  23683050.219 1 124455326.274 8        52.500    23683054.988 1  92937467.760 8        52.000  
E27  26600633.359 1 139787266.805 7        44.200    26600640.621 1 104386617.597 7        44.700  
E15  27618997.914 1 145138847.753 6        39.000    27619005.598 1 108382949.099 6        40.000  
> 2020 05 14 22 32 30.0000000  0 22                     
R11  23836316.766 1 127374020.304 6        37.300    23836317.121 1
G12  20072756.281 1 105483079.456 8        51.500                                                  
G02  21387220.414 1 112390685.054 8        50.300                                                  
R06  23505332.711 1 125428926.921 6        38.300    23505330.797 1
R07  23293307.289 1 124690871.129 7        42.100    23293306.469 1
R12  20123590.242 1 107496607.529 8        51.400    20123589.914 1
G05  22347877.117 1 117438926.785 7        46.200                                                  
R22  20670846.734 1 110342289.898 8        50.400    20670845.227 1
R23  20332996.078 1 108767836.976 8        49.900    20332994.727 1
G06  23057584.102 1 121168404.141 7        42.600    23057595.641 1  90483014.299 8        49.400  
R24  23072022.180 1 123376327.623 7        42.600    23072021.313 1
G19  24834035.391 1 130503717.590 6        39.500                                                  
G24  23942808.695 1 125820421.259 6        39.000    23942821.828 1  93956791.195 7        45.100  
R13  19991704.984 1 106754425.652 6        40.800    19991703.398 1
G25  20819498.039 1 109407150.441 8        48.000    20819507.281 1  81700264.963 9        54.100  
G29  22812823.125 1 119882228.532 7        44.900                                                  
E13  23840233.250 1 125281323.566 8        50.000    23840237.609 1  93554283.661 8        52.300  
E01  24867676.523 1 130680542.097 8        51.000    24867681.121 1  97586139.754 8        49.400  
E21  23689208.609 1 124487690.683 8        51.900    23689213.820 1  92961635.973 8        52.000  
E33  27886780.367 1 146546019.038 6        39.600    27886784.379 1 109433731.425 6        37.900  
E27  26617320.969 1 139874956.099 7        44.800    26617326.680 1 104452099.801 7        44.200  
E15  27633522.891 1 145215170.485 6        39.300    27633529.105 1 108439943.299 6        39.000  
> 2020 05 14 22 33 00.0000000  0 22                     
R11  23861774.875 1 127510055.903 6        39.500    23861775.785 1
G12  20073879.102 1 105488980.250 8        51.500                                                  
G02  21396680.125 1 112440394.341 8        50.800                                                  
R06  23506101.805 1 125433033.002 6        38.600    23506100.484 1
R07  23279018.352 1 124614378.515 6        40.900    23279016.957 1
R12  20139626.742 1 107582269.697 8        51.100    20139625.969 1
G05  22332563.523 1 117358453.261 7        46.300                                                  
R22  20683854.242 1 110411719.605 8        50.100    20683851.996 1
R23  20326271.266 1 108731861.312 8        50.100    20326269.266 1
G06  23075281.422 1 121261400.210 7        42.600    23075291.602 1  90552459.408 8        49.000  
R24  23056340.039 1 123292473.003 6        41.700    23056339.770 1
G19  24850346.086 1 130589432.644 6        38.700                                                  
G24  23960904.508 1 125915502.311 6        39.900    23960915.531 1  94027793.204 7        45.600  
R13  19983950.883 1 106713013.685 6        40.600    19983948.508 1
G25  20809691.648 1 109355621.174 7        47.600    20809701.445 1  81661785.323 8        53.800  
G29  22800259.781 1 119816205.506 7        45.200                                                  
E13  23848350.555 1 125323980.375 8        50.200    23848354.883 1  93586137.773 8        52.200  
E01  24858171.992 1 130630595.843 8        51.100    24858176.570 1  97548842.223 8        49.100  
E21  23695439.727 1 124520436.841 8        52.900    23695445.184 1  92986089.262 8        52.100  
E33  27873141.469 1 146474351.010 6        37.200    27873146.242 1 109380213.174 6        38.000  
E27  26634033.609 1 139962783.500 7        44.100    26634039.922 1 104517685.089 7        44.000  
E15  27648038.508 1 145291447.199 6        40.600    27648044.480 1 108496903.148 6        39.900  
> 2020 05 14 22 33 30.0000000  0 22                     
R11  23887244.391 1 127646138.348 5        35.900    23887241.328 1
G12  20075098.625 1 105495391.175 8        51.000                                                  
G02  21406194.875 1 112490395.926 8        50.300                                                  
R06  23507004.508 1 125437843.499 6        38.800    23507002.590 1
R07  23264804.508 1 124538299.291 6        39.800    23264804.531 1
R12  20155777.914 1 107668544.113 8        51.800    20155777.328 1
G05  22317314.414 1 117278318.967 7        46.300                                                  
R22  20696890.242 1 110481311.799 8        50.000    20696888.805 1
R23  20319615.000 1 108696255.234 8        50.800    20319613.215 1
G06  23093009.055 1 121354556.090 7        43.100    23093019.180 1  90622023.848 8        49.200  
R24  23040704.258 1 123208853.302 6        40.400    23040702.191 1
G19  24866657.898 1 130675154.005 6        36.800                                                  
G24  23979004.313 1 126010625.150 6        38.300    23979015.984 1  94098826.417 7        44.700  
R13  19976338.438 1 106672367.662 6        40.900    19976336.668 1
G25  20799966.977 1 109304518.426 7        47.500    20799976.758 1  81623624.178 8        53.800  
G29  22787715.742 1 119750295.061 7        44.300                                                  
E13  23856498.992 1 125366801.269 8        50.400    23856503.313 1  93618114.413 8        52.100  
E01  24848724.563 1 130580949.862 8        50.300    24848729.305 1  97511768.936 8        49.400  
E21  23701744.195 1 124553564.696 8        53.700    23701749.180 1  93010827.578 8        52.000  
E33  27859528.148 1 146402812.147 6        37.400    27859534.285 1 109326791.356 6        39.400  
E27  26650772.992 1 140050747.804 7        44.700    26650779.355 1 104583372.633 7        44.400  
E15  27662543.547 1 145367677.433 6        39.600    27662550.867 1 108553828.304 6        40.400  
> 2020 05 14 22 34 00.0000000  0 22                     
R11  23912715.359 1 127782263.941 6        36.400    23912715.082 1
G12  20076415.945 1 105502312.995 8        51.900                                                  
G02  21415764.672 1 112540688.154 8        50.000                                                  
R06  23508038.250 1 125443358.660 6        38.500    23508036.301 1
R07  23250671.250 1 124462637.932 6        39.400    23250669.844 1
R12  20172042.383 1 107755427.951 8        51.700    20172041.797 1
G05  22302129.914 1 117198526.959 7        46.100                                                  
R22  20709956.734 1 110551064.066 8        50.200    20709955.414 1
R23  20313026.633 1 108661018.075 8        50.200    20313025.844 1
G06  23110764.469 1 121447869.584 7        42.500    23110775.406 1  90691705.963 8        48.700  
R24  23025111.211 1 123125468.989 6        40.600    23025109.125 1
G19  24882971.102 1 130760881.705 5        35.800                                                  
G24  23997113.125 1 126105786.257 6        39.000    23997126.859 1  94169888.216 7        46.300  
R13  19968870.914 1 106632489.967 6        41.100    19968868.957 1
G25  20790323.844 1 109253844.440 7        47.600    20790333.965 1  81585783.223 8        53.800  
G29  22775195.016 1 119684496.990 7        43.600                                                  
E13  23864678.594 1 125409785.089 8        49.700    23864682.766 1  93650212.725 8        52.200  
E01  24839334.961 1 130531605.838 8        51.000    24839339.465 1  97474921.126 8        49.300  
E21  23708120.781 1 124587074.095 8        53.400    23708126.160 1  93035850.813 8        52.200  
E33  27845939.000 1 146331403.131 6        36.700    27845945.680 1 109273466.454 6        38.700  
E27  26667536.711 1 140138847.795 7        43.600    26667543.773 1 104649161.527 7        43.900  
E15  27677040.406 1 145443860.557 6        39.500    27677047.793 1 108610718.271 6        41.500  
> 2020 05 14 22 34 30.0000000  0 22                     
R11  23938200.906 1 127918430.211 5        35.200    23938197.750 1
G12  20077831.258 1 105509747.262 8        51.300                                                  
G02  21425390.750 1 112591269.785 8        49.900                                                  
R06  23509204.359 1 125449579.000 6        37.500    23509201.227 1
R07  23236615.563 1 124387398.994 6        39.700    23236614.848 1
R12  20188420.281 1 107842918.321 8        51.800    20188420.234 1
G05  22287012.578 1 117119081.323 7        46.300                                                  
R22  20723053.844 1 110620975.391 8        50.000    20723052.363 1
R23  20306509.188 1 108626149.748 8        50.800    20306507.930 1
G06  23128551.352 1 121541339.004 7        42.800    23128562.813 1  90761504.542 8        49.100  
R24  23009561.773 1 123042321.018 6        41.800    23009560.313 1
G19  24899286.258 1 130846616.393 5        35.800                                                  
G24  24015228.523 1 126200984.075 6        38.200    24015242.230 1  94240977.397 7        46.000  
R13  19961547.867 1 106593383.694 6        40.800    19961545.633 1
G25  20780763.172 1 109203601.904 7        47.500    20780773.375 1  81548264.454 9        54.100  
G29  22762695.188 1 119618812.230 7        44.300                                                  
E13  23872889.141 1 125452931.245 8        49.400    23872893.320 1  93682432.250 8        52.100  
E01  24830002.867 1 130482565.924 8        50.700    24830007.273 1  97438300.412 8        49.500  
E21  23714570.641 1 124620965.390 8        53.800    23714575.066 1  93061159.241 8        52.100  
E33  27832374.180 1 146260124.772 6        36.500    27832382.590 1 109220239.130 6        39.300  
E27  26684328.016 1 140227082.848 7        44.300    26684335.078 1 104715051.250 7        43.000  
E15  27691528.953 1 145519996.568 6        38.800    27691536.602 1 108667573.010 7        42.100  
> 2020 05 14 22 35 00.0000000  0 24                     
R11  23963687.797 1 128054632.513 5        33.500    23963684.492 1
R08  24502005.578 1 131207118.98815        30.100    24502004.680 1
G12  20079343.125 1 105517693.542 8        52.300                                                  
G02  21435070.234 1 112642137.611 8        50.200                                                  
R06  23510500.313 1 125456504.283 6        38.300    23510499.020 1
R07  23222641.813 1 124312585.561 6        38.900    23222639.043 1
R12  20204910.953 1 107931010.887 8        51.100    20204911.152 1
G05  22271960.477 1 117039983.980 7        46.500                                                  
R22  20736180.148 1 110691042.358 8        50.900    20736178.277 1
R23  20300059.438 1 108591647.946 8        50.200    20300058.098 1
G06  23146366.453 1 121634960.933 7        43.200    23146378.000 1  90831417.007 8        48.500  
R14  23669845.813 1 126173596.90414        29.200    23669846.016 1
R24  22994054.359 1 122959408.514 6        41.300    22994055.074 1
G19  24915603.258 1 130932356.858 6        36.400                                                  
G24  24033350.672 1 126296214.428 6        38.700    24033363.031 1  94312090.877 7        45.100  
R13  19954367.859 1 106555049.917 6        40.800    19954366.863 1
G25  20771284.883 1 109153791.819 7        47.700    20771294.945 1  81511068.611 9        54.500  
G29  22750217.875 1 119553239.732 7        43.300                                                  
E13  23881129.820 1 125496237.329 8        50.000    23881134.254 1  93714771.207 8        52.400  
E01  24820729.047 1 130433830.510 8        51.500    24820733.117 1  97401907.080 8        49.700  
E21  23721092.039 1 124655237.117 8        53.900    23721096.813 1  93086751.756 8        52.400  
E33  27818837.102 1 146188976.291 6        38.800    27818842.574 1 109167108.826 6        39.300  
E27  26701144.000 1 140315450.407 7        44.200    26701150.098 1 104781039.874 7        43.400  
E15  27706007.602 1 145596083.597 6        39.300    27706014.234 1 108724391.170 6        41.800  
> 2020 05 14 22 35 30.0000000  0 24                     
R11  23989181.969 1 128190867.550 5        35.000    23989179.461 1
R08  24481959.273 1 131099752.923 5        31.800    24481956.172 1
G12  20080952.766 1 105526152.200 8        52.300                                                  
G02  21444803.656 1 112693289.515 8        50.200                                                  
R06  23511930.078 1 125464134.491 6        37.300    23511928.762 1
R07  23208744.969 1 124238201.650 6        40.600    23208744.020 1
R12  20221515.063 1 108019702.022 8        50.700    20221514.172 1
G05  22256976.094 1 116961237.281 7        46.300                                                  
R22  20749334.586 1 110761262.751 8        50.300    20749333.023 1
R23  20293678.109 1 108557511.754 8        51.000    20293676.781 1
G06  23164211.148 1 121728732.997 7        43.900    23164221.586 1  90901441.578 8        48.000  
R14  23647092.813 1 126052290.705 4        29.400    23647090.910 1
R24  22978594.523 1 122876731.478 6        41.600    22978593.398 1
G19  24931918.820 1 131018103.034 5        33.400                                                  
G24  24051477.828 1 126391474.304 6        39.000    24051490.566 1  94383226.450 7        45.400  
R13  19947334.641 1 106517490.763 6        40.200    19947333.211 1
G25  20761888.289 1 109104416.120 7        47.300    20761898.863 1  81474197.166 9        54.500  
G29  22737761.141 1 119487779.437 7        44.200                                                  
E13  23889400.938 1 125539701.989 8        50.200    23889405.098 1  93747228.588 8        52.100  
E01  24811513.219 1 130385401.060 8        51.800    24811517.281 1  97365742.235 8        49.700  
E21  23727685.563 1 124689888.901 8        53.900    23727691.004 1  93112628.062 8        52.500  
E33  27805322.734 1 146117958.011 6        40.300    27805329.125 1 109114075.729 6        40.700  
E27  26717985.070 1 140403949.052 7        44.600    26717992.262 1 104847126.466 7        43.600  
E15  27720476.805 1 145672120.803 6        39.400    27720483.977 1 108781172.181 6        41.100  
> 2020 05 14 22 36 00.0000000  0 22                     
R11  24014682.859 1 128327132.114 5        35.100    24014680.406 1
G12  20082659.867 1 105535124.608 8        51.800                                                  
G02  21454591.609 1 112744724.519 8        49.600                                                  
R06  23513493.500 1 125472470.876 6        38.100    23513492.031 1
R07  23194929.461 1 124164251.981 6        41.300    23194928.953 1
R12  20238229.477 1 108108989.195 8        50.700    20238229.102 1
G05  22242058.008 1 116882845.336 7        46.700                                                  
R22  20762517.266 1 110831635.289 8        50.100    20762515.809 1
R23  20287364.914 1 108523740.958 8        50.600    20287363.434 1
G06  23182084.234 1 121822653.555 7        44.300    23182094.488 1  90971577.028 8        48.500  
R24  22963179.039 1 122794291.047 6        41.600    22963177.035 1
G19  24948238.391 1 131103854.816 5        35.000                                                  
G24  24069610.734 1 126486761.497 6        39.000    24069623.973 1  94454382.388 7        46.300  
R13  19940445.133 1 106480708.835 6        40.900    19940445.125 1
G25  20752575.961 1 109055477.533 8        48.000    20752586.238 1  81437652.122 9        54.600  
G29  22725326.203 1 119422432.112 7        44.500                                                  
E13  23897702.008 1 125583324.618 8        50.200    23897706.301 1  93779803.927 8        52.100  
E01  24802356.047 1 130337279.731 8        51.000    24802360.270 1  97329807.482 8        49.600  
E21  23734352.813 1 124724921.045 9        54.800    23734357.414 1  93138788.420 8        52.700  
E33  27791833.250 1 146047070.891 6        41.000    27791839.656 1 109061140.550 6        40.700  
E27  26734850.563 1 140492578.106 7        43.500    26734857.953 1 104913310.380 7        44.200  
E15  27734936.695 1 145748108.193 6        39.200    27734943.652 1 108837915.988 6        40.600  
> 2020 05 14 22 36 30.0000000  0 24                     
R11  24040185.641 1 128463422.821 5        32.700    24040185.586 1
R08  24441814.813 1 130884741.00914        25.100    24441802.922 1
G12  20084465.484 1 105544610.928 8        52.000                                                  
G02  21464433.164 1 112796439.971 8        49.600                                                  
R06  23515187.453 1 125481512.587 6        36.700    23515185.066 1
R07  23181198.047 1 124090740.334 6        41.700    23181197.164 1
R12  20255055.234 1 108198868.753 8        51.100    20255054.754 1
G05  22227208.352 1 116804810.821 7        46.600                                                  
R22  20775728.570 1 110902157.499 8        50.200    20775727.191 1
R23  20281119.641 1 108490334.216 8        50.500    20281118.430 1
G06  23199985.438 1 121916719.958 7        44.200    23199994.805 1  91041821.388 7        47.800  
R14  23601709.133 1 125810388.70915        30.800    23601710.051 1
R24  22947805.336 1 122712086.836 7        42.800    22947804.832 1
G19  24964556.883 1 131189611.828 5        33.100                                                  
G24  24087747.461 1 126582073.404 6        40.200    24087761.012 1  94525556.743 7        45.700  
R13  19933704.648 1 106444705.747 6        40.600    19933703.270 1
G25  20743346.984 1 109006977.825 7        47.800    20743357.008 1  81401434.798 9        54.500  
G29  22712912.156 1 119357197.371 7        43.600                                                  
E13  23906033.125 1 125627103.628 8        49.900    23906037.316 1  93812496.049 8        52.100  
E01  24793257.797 1 130289467.724 8        51.900    24793261.758 1  97294103.715 8        49.200  
E21  23741090.875 1 124760332.880 8        53.900    23741096.070 1  93165232.303 8        52.600  
E33  27778367.141 1 145976314.909 6        38.500    27778375.152 1 109008303.339 6        40.400  
E27  26751740.484 1 140581335.831 7        43.700    26751747.344 1 104979590.433 7        43.700  
E15  27749387.406 1 145824044.720 6        39.900    27749394.996 1 108894621.783 6        41.900  
> 2020 05 14 22 37 00.0000000  0 23                     
R11  24065697.688 1 128599736.287 5        34.500    24065696.055 1
G12  20086367.781 1 105554612.267 8        52.200                                                  
G02  21474326.859 1 112848434.558 8        49.500                                                  
R06  23517013.203 1 125491260.746 6        37.100    23517012.281 1
R07  23167550.000 1 124017670.843 6        41.700    23167548.078 1
R12  20271991.328 1 108289337.753 8        50.000    20271990.977 1
G05  22212427.047 1 116727136.943 7        45.600                                                  
R22  20788967.359 1 110972827.819 8        50.300    20788966.496 1
R23  20274942.227 1 108457291.015 8        50.000    20274941.297 1
G06  23217912.594 1 122010930.300 7        44.600    23217922.215 1  91112173.271 7        47.900  
R14  23579087.922 1 125689800.504 5        33.300    23579088.332 1
R24  22932476.359 1 122630119.638 7        42.000    22932475.984 1
G19  24980876.492 1 131275374.229 5        33.900                                                  
G24  24105889.484 1 126677406.983 6        41.300    24105901.223 1  94596747.321 7        44.700  
R13  19927109.109 1 106409484.345 6        40.400    19927107.094 1
G25  20734201.695 1 108958919.366 8        49.500    20734211.918 1  81365546.998 9        54.600  
G29  22700520.781 1 119292075.812 7        44.200                                                  
E13  23914393.289 1 125671038.169 8        50.000    23914397.566 1  93845304.309 8        52.000  
E01  24784218.406 1 130241966.894 8        51.900    24784222.773 1  97258632.309 8        49.900  
E21  23747901.844 1 124796124.407 9        54.000    23747907.160 1  93191959.734 8        52.800  
E33  27764927.898 1 145905690.719 6        38.100    27764936.898 1 108955564.535 6        41.900  
E27  26768654.688 1 140670221.271 7        43.700    26768662.301 1 105045965.841 7        43.300  
E15  27763827.844 1 145899929.991 6        39.800    27763834.844 1 108951289.332 6        41.200  
> 2020 05 14 22 37 30.0000000  0 23                     
R11  24091210.469 1 128736068.440 5        33.800    24091209.238 1
G12  20088369.180 1 105565128.219 8        51.200                                                  
G02  21484273.609 1 112900705.480 8        49.200                                                  
R06  23518972.797 1 125501714.929 5        35.700    23518971.199 1
R07  23153982.648 1 123945047.107 6        40.800    23153980.328 1
R12  20289035.938 1 108380391.714 8        50.200    20289035.898 1
G05  22197716.094 1 116649826.202 7        46.300                                                  
R22  20802233.000 1 111043643.359 8        50.700    20802232.125 1
R23  20268832.633 1 108424609.684 8        49.500    20268831.527 1
G06  23235867.234 1 122105281.541 7        44.200    23235876.926 1  91182630.338 7        47.800  
R14  23556515.875 1 125569458.750 5        34.200    23556513.711 1
R24  22917193.664 1 122548388.609 7        43.600    22917193.207 1
G19  24997197.836 1 131361141.107 5        35.800                                                  
G24  24124034.570 1 126772758.829 6        40.700    24124047.098 1  94667951.517 7        45.700  
R13  19920658.906 1 106375045.694 6        39.900    19920657.480 1
G25  20725140.914 1 108911303.365 8        48.100    20725150.930 1  81329989.610 9        54.500  
G29  22688149.125 1 119227066.689 7        44.900                                                  
E13  23922782.977 1 125715126.134 8        50.100    23922787.293 1  93878227.138 8        51.900  
E01  24775238.523 1 130194777.911 8        51.000    24775242.863 1  97223393.798 8        49.900  
E21  23754784.758 1 124832294.451 8        53.800    23754789.980 1  93218969.819 8        52.900  
E33  27751514.602 1 145835197.835 6        38.700    27751522.273 1 108902923.811 7        42.100  
E27  26785592.867 1 140759232.227 7        43.800    26785600.512 1 105112434.983 7        43.100  
E15  27778258.109 1 145975762.538 6        39.400    27778265.539 1 109007917.522 6        40.700  
> 2020 05 14 22 38 00.0000000  0 24                     
R11  24116730.055 1 128872416.257 5        30.800    24116724.211 1
R08  24381454.539 1 130561542.56415        33.700    24381456.574 1
G12  20090468.563 1 105576160.186 8        51.800                                                  
G02  21494273.117 1 112953251.300 8        49.100                                                  
R06  23521063.203 1 125512874.959 5        35.500    23521062.078 1
R07  23140498.188 1 123872873.350 6        38.000    23140496.578 1
R12  20306190.922 1 108472027.963 8        50.000    20306190.348 1
G05  22183074.078 1 116572882.335 7        45.000                                                  
R22  20815526.742 1 111114602.623 8        50.200    20815525.094 1
R23  20262790.805 1 108392289.419 8        49.900    20262790.063 1
G06  23253847.250 1 122199771.990 7        44.300    23253857.785 1  91253191.363 7        47.700  
R14  23533987.297 1 125449367.979 5        32.500    23533985.316 1
R24  22901952.539 1 122466894.570 7        42.100    22901952.348 1
G19  25013519.492 1 131446912.887 5        35.400                                                  
G24  24142182.883 1 126868126.751 6        40.900    24142195.168 1  94739167.723 7        46.100  
R13  19914357.297 1 106341392.199 6        40.200    19914355.129 1
G25  20716164.688 1 108864132.455 8        49.100    20716174.477 1  81294764.584 9        54.500  
G29  22675799.031 1 119162170.724 7        44.300                                                  
E13  23931201.789 1 125759366.883 8        49.900    23931205.941 1  93911264.067 8        52.100  
E01  24766318.406 1 130147902.894 8        51.700    24766323.016 1  97188389.718 8        49.300  
E21  23761739.898 1 124868843.200 8        53.800    23761744.988 1  93246262.704 8        52.900  
E33  27738125.797 1 145764837.219 6        40.700    27738132.414 1 108850381.886 7        42.100  
E27  26802554.883 1 140848367.898 7        43.100    26802561.164 1 105178997.233 7        42.900  
E15  27792679.219 1 146051542.400 6        40.700    27792684.602 1 109064506.337 6        39.200  
> 2020 05 14 22 38 30.0000000  0 24                     
R11  24142242.750 1 129008776.79414        27.500    24142240.996 1
R08  24361313.664 1 130453666.006 5        35.600    24361311.527 1
G12  20092666.430 1 105587708.556 8        51.900                                                  
G02  21504324.203 1 113006070.098 7        47.800                                                  
R06  23523287.797 1 125524741.465 6        36.000    23523285.898 1
R07  23127100.031 1 123801154.061 6        38.800    23127099.383 1
R12  20323453.711 1 108564243.069 8        48.500    20323453.125 1
G05  22168502.367 1 116496308.453 7        45.900                                                  
R22  20828846.219 1 111185703.731 8        49.400    20828844.691 1
R23  20256816.734 1 108360330.098 7        47.600    20256815.359 1
G06  23271854.305 1 122294399.417 7        43.400    23271865.492 1  91323854.691 8        48.100  
R14  23511504.930 1 125329532.009 5        32.600    23511502.496 1
R24  22886757.172 1 122385637.830 6        41.700    22886756.375 1
G19  25029843.156 1 131532689.416 6        37.100                                                  
G24  24160333.008 1 126963508.070 6        40.200    24160345.945 1  94810393.926 7        46.300  
R13  19908202.250 1 106308526.142 6        40.300    19908200.258 1
G25  20707273.172 1 108817408.710 7        47.900    20707283.242 1  81259873.466 9        54.500  
G29  22663472.492 1 119097387.873 7        45.300                                                  
E13  23939649.313 1 125803759.220 8        49.200    23939653.602 1  93944414.184 8        51.800  
E01  24757458.992 1 130101343.368 8        48.500    24757462.988 1  97153621.251 8        49.900  
E21  23768767.023 1 124905770.330 8        52.800    23768772.047 1  93273838.147 8        52.900  
E33  27724761.320 1 145694609.265 6        40.000    27724767.953 1 108797938.916 6        40.500  
E27  26819540.672 1 140937626.952 7        43.500    26819547.836 1 105245651.634 7        43.000  
E15  27807088.133 1 146127268.883 6        39.600    27807096.445 1 109121055.276 6        41.200  
> 2020 05 14 22 39 00.0000000  0 23                     
R11  24167761.477 1 129145146.025 5        34.100    24167762.773 1
R08  24341157.938 1 130345718.450 5        32.900    24341152.391 1
G12  20094962.695 1 105599773.907 8        53.300                                                  
G02  21514426.836 1 113059159.952 8        49.500                                                  
R06  23525643.242 1 125537314.672 5        35.400    23525642.195 1
R07  23113787.969 1 123729892.808 6        40.900    23113787.563 1
R12  20340824.148 1 108657033.426 8        50.000    20340824.020 1
G05  22154001.430 1 116420107.791 7        45.000                                                  
R22  20842192.563 1 111256944.748 8        50.000    20842191.129 1
R23  20250909.656 1 108328730.388 8        49.600    20250908.258 1
G06  23289886.883 1 122389161.649 7        43.200    23289897.969 1  91394618.675 8        48.000  
R24  22871606.711 1 122304618.795 7        43.100    22871606.180 1
G19  25046165.648 1 131618470.557 6        37.500                                                  
G24  24178485.445 1 127058900.111 6        39.600    24178496.949 1  94881628.168 7        45.100  
R13  19902195.961 1 106276449.850 6        40.700    19902194.008 1
G25  20698467.359 1 108771134.193 8        49.400    20698477.320 1  81225317.820 9        54.400  
G29  22651165.773 1 119032718.515 7        45.500                                                  
E13  23948125.617 1 125848301.959 8        50.300    23948129.703 1  93977676.616 8        51.900  
E01  24748658.938 1 130055100.907 8        51.500    24748663.445 1  97119089.546 8        49.800  
E21  23775865.672 1 124943075.473 8        53.100    23775870.930 1  93301695.871 8        53.000  
E33  27711423.867 1 145624514.189 6        41.800    27711427.922 1 108745595.241 6        39.400  
E27  26836549.078 1 141027008.057 7        42.100    26836554.918 1 105312397.171 6        41.500  
E15  27821488.430 1 146202941.338 6        39.600    27821497.094 1 109177563.900 6        40.200  
> 2020 05 14 22 39 30.0000000  0 25                     
R11  24193287.859 1 129281521.663 5        34.700    24193282.313 1
R08  24320982.367 1 130237703.66015        32.200    24320979.883 1
G31  25152342.930 1 132176562.49015        32.500                                                  
G12  20097356.609 1 105612357.108 8        51.900                                                  
G02  21524580.594 1 113112519.472 8        48.500                                                  
R06  23528133.266 1 125550594.832 5        35.100    23528131.238 1
R07  23100562.328 1 123659094.660 6        39.400    23100560.988 1
R12  20358302.820 1 108750396.035 8        50.300    20358302.293 1
G05  22139572.766 1 116344282.859 7        45.300                                                  
R22  20855564.008 1 111328323.914 8        49.800    20855562.352 1
R23  20245068.453 1 108297489.608 8        49.300    20245067.852 1
G06  23307945.531 1 122484056.744 7        43.200    23307955.938 1  91465481.862 8        48.100  
R14  23466689.289 1 125090641.51214        29.400    23466688.688 1
R24  22856499.945 1 122223837.638 7        42.800    22856499.488 1
G19  25062489.445 1 131704256.536 6        37.100                                                  
G24  24196639.820 1 127154300.847 6        39.300    24196651.965 1  94952868.870 7        46.000  
R13  19896337.336 1 106245165.034 6        40.300    19896335.320 1
G25  20689747.117 1 108725311.162 8        48.700    20689757.543 1  81191099.335 9        54.300  
G29  22638881.805 1 118968163.049 7        45.000                                                  
E13  23956629.914 1 125892994.167 8        50.100    23956634.258 1  94011050.676 8        51.400  
E01  24739920.102 1 130009177.255 8        51.200    24739924.531 1  97084795.911 8        50.200  
E21  23783036.688 1 124980758.532 8        52.900    23783041.602 1  93329835.816 8        52.900  
E33  27698108.609 1 145554552.716 6        40.200    27698115.512 1 108693351.314 6        40.500  
E27  26853581.273 1 141116510.145 7        43.700    26853587.918 1 105379233.047 7        42.100  
E15  27835878.930 1 146278559.457 6        40.200    27835887.016 1 109234031.931 6        40.300  
> 2020 05 14 22 40 00.0000000  0 24                     
R11  24218803.461 1 129417900.066 5        35.300    24218803.547 1
R08  24300798.391 1 130129626.297 5        33.200    24300796.875 1
G12  20099850.273 1 105625458.916 8        51.700                                                  
G02  21534785.648 1 113166146.804 8        48.800                                                  
R06  23530754.234 1 125564581.751 5        33.600    23530752.180 1
R07  23087423.977 1 123588763.132 6        40.300    23087423.477 1
R12  20375886.492 1 108844327.419 8        50.200    20375886.246 1
G05  22125216.734 1 116268837.530 7        46.100                                                  
R22  20868961.367 1 111399839.551 8        49.700    20868959.742 1
R23  20239296.867 1 108266606.823 8        49.600    20239295.070 1
G06  23326027.586 1 122579082.640 7        43.400    23326038.871 1  91536442.723 7        47.800  
R14  23444354.938 1 124971595.20714        29.000    23444352.402 1
R24  22841437.102 1 122143294.745 7        42.900    22841436.758 1
G19  25078814.688 1 131790047.456 5        35.100                                                  
G24  24214794.570 1 127249706.899 6        40.000    24214807.051 1  95024113.543 7        45.400  
R13  19890626.609 1 106214673.656 6        40.100    19890625.191 1
G25  20681114.398 1 108679941.852 8        49.100    20681123.820 1  81157219.662 9        54.400  
G29  22626619.133 1 118903721.806 7        45.500                                                  
E13  23965162.938 1 125937834.792 8        49.800    23965167.148 1  94044535.550 8        51.500  
E01  24731241.969 1 129963574.098 8        51.500    24731246.523 1  97050741.611 8        50.900  
E21  23790279.328 1 125018819.240 8        52.600    23790284.496 1  93358257.758 8        52.900  
E33  27684821.383 1 145484725.253 6        39.800    27684828.684 1 108641207.468 6        41.400  
E27  26870635.477 1 141206132.040 7        42.700    26870643.113 1 105446158.351 7        42.300  
E15  27850258.266 1 146354122.718 6        39.800    27850265.230 1 109290459.003 6        40.800  
> 2020 05 14 22 40 30.0000000  0 24                     
R11  24244324.695 1 129554277.703 6        36.300    24244324.883 1
R08  24280608.195 1 130021489.110 5        35.100    24280605.230 1
G12  20102442.281 1 105639079.164 8        53.300                                                  
G02  21545041.367 1 113220039.371 8        49.400                                                  
R06  23533507.633 1 125579275.026 5        34.700    23533505.449 1
R07  23074373.969 1 123518901.922 6        39.800    23074372.914 1
R12  20393576.086 1 108938823.708 8        50.700    20393575.711 1
G05  22110932.484 1 116193774.114 7        46.600                                                  
R22  20882384.234 1 111471489.344 8        50.600    20882382.543 1
R23  20233589.547 1 108236081.133 8        50.000    20233588.617 1
G06  23344134.711 1 122674236.678 7        43.000    23344145.336 1  91607499.282 7        47.100  
R14  23422071.258 1 124852819.57414        29.900    23422071.250 1
R24  22826420.641 1 122062989.894 7        43.600    22826420.313 1
G19  25095142.172 1 131875842.337 5        34.300                                                  
G24  24232948.930 1 127345115.390 6        37.900    24232963.293 1  95095360.038 7        46.000  
R13  19885064.984 1 106184977.607 6        39.600    19885063.676 1
G25  20672567.461 1 108635027.758 8        48.700    20672577.160 1  81123679.933 9        54.400  
G29  22614378.344 1 118839394.440 7        45.800                                                  
E13  23973723.602 1 125982822.131 8        49.700    23973728.074 1  94078130.002 8        51.700  
E01  24722625.313 1 129918292.430 8        51.700    24722629.535 1  97016927.393 8        50.000  
E21  23797593.555 1 125057256.716 8        52.800    23797598.805 1  93386961.069 8        52.800  
E33  27671560.156 1 145415031.669 6        40.600    27671565.484 1 108589163.627 6        40.800  
E27  26887712.055 1 141295871.835 6        40.900    26887719.238 1 105513171.789 6        41.900  
E15  27864626.984 1 146429630.069 6        38.000    27864634.680 1 109346844.297 6        40.400  
> 2020 05 14 22 41 00.0000000  0 24                     
R11  24269846.875 1 129690650.737 5        30.700    24269844.414 1
R08  24260402.836 1 129913296.340 5        33.600    24260399.055 1
G12  20105132.867 1 105653218.445 8        53.200                                                  
G02  21555347.227 1 113274195.175 8        49.300                                                  
R06  23536393.547 1 125594674.707 5        35.500    23536391.574 1
R07  23061412.391 1 123449514.684 6        40.100    23061410.973 1
R12  20411371.164 1 109033881.191 8        51.000    20411370.789 1
G05  22096721.508 1 116119095.688 7        45.800                                                  
R22  20895830.508 1 111543271.200 8        49.900    20895829.340 1
R23  20227949.508 1 108205910.918 8        49.900    20227948.344 1
G06  23362266.250 1 122769516.615 7        43.800    23362276.965 1  91678649.854 7        47.500  
R14  23399841.352 1 124734318.85614        29.000    23399840.543 1
R24  22811447.555 1 121982923.059 7        42.600    22811446.758 1
G19  25111470.016 1 131961641.290 5        35.200                                                  
G24  24251105.469 1 127440523.433 6        38.900    24251118.746 1  95166606.255 7        46.500  
R13  19879653.633 1 106156078.137 6        39.900    19879652.141 1
G25  20664107.375 1 108590570.819 8        48.700    20664117.230 1  81090481.563 9        54.400  
G29  22602158.047 1 118775180.801 7        45.300                                                  
E13  23982312.313 1 126027954.950 8        50.000    23982316.613 1  94111833.082 8        51.700  
E01  24714069.719 1 129873333.730 8        52.000    24714073.965 1  96983354.342 8        50.000  
E21  23804979.820 1 125096070.476 8        52.800    23804984.770 1  93415945.357 8        52.800  
E33  27658322.367 1 145345472.204 6        40.200    27658328.820 1 108537219.914 6        41.300  
E27  26904812.156 1 141385728.180 7        43.800    26904820.336 1 105580272.193 7        43.800  
E15  27878984.719 1 146505080.889 6        38.300    27878991.988 1 109403187.378 6        38.000  
> 2020 05 14 22 41 30.0000000  0 24                     
R11  24295363.617 1 129827016.856 5        31.400    24295363.887 1
R08  24240191.328 1 129805052.435 5        31.000    24240185.121 1
G12  20107921.820 1 105667877.777 8        52.900                                                  
G02  21565702.242 1 113328613.038 8        48.900                                                  
R06  23539412.609 1 125610780.751 6        36.000    23539410.352 1
R07  23048539.609 1 123380606.159 7        42.300    23048538.348 1
R12  20429271.805 1 109129496.820 8        51.600    20429271.102 1
G05  22082584.953 1 116044805.698 7        47.200                                                  
R22  20909302.531 1 111615183.448 8        49.400    20909300.695 1
R23  20222375.281 1 108176096.008 8        50.400    20222374.938 1
G06  23380421.633 1 122864920.713 7        44.600    23380431.574 1  91749893.147 7        47.100  
R14  23377663.383 1 124616097.315 5        34.500    23377661.688 1
R24  22796518.047 1 121903095.055 6        41.700    22796517.445 1
G19  25127795.594 1 132047444.55615        32.000                                                  
G24  24269259.938 1 127535928.426 6        38.100    24269273.766 1  95237850.093 7        46.200  
R13  19874391.203 1 106127977.664 6        40.200    19874390.113 1
G25  20655734.773 1 108546573.499 8        49.300    20655744.883 1  81057626.426 9        54.400  
G29  22589960.625 1 118711081.605 7        45.100                                                  
E13  23990928.461 1 126073232.493 8        49.800    23990932.484 1  94145644.229 8        51.400  
E01  24705576.305 1 129828699.924 8        51.800    24705580.359 1  96950023.907 8        49.600  
E21  23812437.133 1 125135260.528 8        52.100    23812442.523 1  93445210.648 8        52.600  
E33  27645111.758 1 145276047.632 6        41.100    27645117.738 1 108485376.941 6        41.800  
E27  26921932.805 1 141475700.097 7        43.300    26921939.613 1 105647458.933 7        42.400  
E15  27893332.320 1 146580474.978 6        37.400    27893338.836 1 109459488.198 6        38.000  
> 2020 05 14 22 42 00.0000000  0 23                     
R08  24219963.039 1 129696761.03715        33.500    24219961.789 1
G12  20110810.633 1 105683056.613 8        53.000                                                  
G02  21576107.219 1 113383290.376 8        50.200                                                  
R06  23542562.016 1 125627592.224 6        36.500    23542561.168 1
R07  23035757.242 1 123312179.624 7        43.700    23035756.129 1
R12  20447274.508 1 109225666.531 8        51.200    20447274.238 1
G05  22068520.820 1 115970906.128 7        46.700                                                  
R22  20922798.063 1 111687224.015 8        49.800    20922796.453 1
R23  20216867.742 1 108146634.545 8        50.100    20216867.270 1
G06  23398599.352 1 122960446.133 7        43.600    23398609.410 1  91821227.051 7        47.000  
R14  23355537.078 1 124498158.450 6        36.200    23355537.402 1
R24  22781634.875 1 121823505.168 6        41.500    22781634.508 1
G19  25144124.164 1 132133251.47715        30.500                                                  
G24  24287415.727 1 127631327.477 6        40.000    24287427.457 1  95309089.543 7        46.300  
R13  19869279.852 1 106100677.517 6        40.400    19869277.555 1
G25  20647449.820 1 108503037.072 8        48.600    20647460.219 1  81025115.474 9        54.100  
G29  22577784.680 1 118647096.661 7        44.600                                                  
E13  23999571.813 1 126118652.895 8        50.100    23999575.801 1  94179562.068 8        51.300  
E01  24697144.617 1 129784391.794 8        51.200    24697148.988 1  96916936.668 8        49.800  
E21  23819966.172 1 125174825.764 8        52.800    23819971.676 1  93474756.115 8        52.500  
E33  27631926.008 1 145206757.610 6        40.100    27631932.715 1 108433634.387 7        43.400  
E27  26939075.523 1 141565785.568 7        43.400    26939082.559 1 105714730.435 7        42.100  
E15  27907666.883 1 146655811.057 6        36.900    27907675.070 1 109515745.607 6        36.900  
> 2020 05 14 22 42 30.0000000  0 23                     
R08  24199734.164 1 129588426.250 4        29.900    24199728.535 1
G12  20113797.930 1 105698755.844 8        53.500                                                  
G02  21586561.094 1 113438225.227 8        49.400                                                  
R06  23545844.977 1 125645109.453 5        35.900    23545843.758 1
R07  23023063.586 1 123244238.696 6        41.800    23023062.348 1
R12  20465380.836 1 109322386.717 8        51.300    20465380.367 1
G05  22054534.023 1 115897400.541 7        47.600                                                  
R22  20936317.195 1 111759391.177 8        49.100    20936315.828 1
R23  20211426.578 1 108117525.990 8        50.000    20211425.613 1
G06  23416798.484 1 123056090.975 7        42.200    23416809.836 1  91892650.088 7        46.400  
R14  23333466.258 1 124380506.034 6        37.600    23333466.840 1
R24  22766797.055 1 121744153.875 7        42.700    22766795.703 1
G19  25160453.781 1 132219058.39315        31.500                                                  
G24  24305567.359 1 127726718.021 6        39.500    24305579.645 1  95380322.633 7        46.300  
R13  19864316.531 1 106074178.831 6        39.700    19864315.191 1
G25  20639253.531 1 108459963.738 8        48.800    20639263.453 1  80992950.327 9        54.100  
G29  22565630.367 1 118583225.851 7        45.100                                                  
E13  24008241.703 1 126164215.207 8        49.800    24008245.824 1  94213585.867 8        51.400  
E01  24688775.359 1 129740411.077 8        51.200    24688779.840 1  96884093.928 8        50.100  
E21  23827566.906 1 125214765.940 8        53.200    23827572.098 1  93504581.569 8        52.400  
E33  27618765.094 1 145137602.526 6        37.900    27618772.332 1 108381992.696 7        43.300  
E27  26956239.430 1 141655983.423 7        43.200    26956246.934 1 105782085.878 7        42.600  
E15  27921992.609 1 146731088.771 6        38.000    27921999.711 1 109571959.507 6        38.800  
> 2020 05 14 22 43 00.0000000  0 23                     
R08  24179498.008 1 129480051.063 5        33.900    24179492.695 1
G12  20116884.531 1 105714974.539 8        53.000                                                  
G02  21597063.148 1 113493414.890 8        50.200                                                  
R06  23549259.039 1 125663331.383 5        35.000    23549257.395 1
R07  23010464.109 1 123176786.756 7        42.500    23010462.652 1
R12  20483588.055 1 109419652.790 8        50.200    20483588.184 1
G05  22040621.672 1 115824291.034 7        47.000                                                  
R22  20949859.930 1 111831681.913 8        49.300    20949858.504 1
R23  20206051.172 1 108088768.236 8        50.300    20206049.891 1
G06  23435021.336 1 123151852.024 7        42.800    23435032.176 1  91964159.948 7        46.100  
R14  23311451.180 1 124263143.596 6        40.200    23311450.359 1
R24  22751999.531 1 121665040.098 7        42.200    22752000.234 1
G19  25176783.797 1 132304870.52014        29.900                                                  
G24  24323717.875 1 127822096.259 6        39.500    24323730.867 1  95451546.504 7        46.600  
R13  19859505.555 1 106048482.865 6        39.800    19859503.023 1
G25  20631145.242 1 108417354.495 8        49.300    20631155.055 1  80961131.738 9        54.100  
G29  22553496.656 1 118519468.460 7        45.100                                                  
E13  24016938.594 1 126209917.251 8        49.700    24016942.555 1  94247714.017 8        51.700  
E01  24680468.414 1 129696758.249 8        51.400    24680473.035 1  96851496.039 8        50.300  
E21  23835238.406 1 125255079.630 8        53.000    23835243.590 1  93534685.930 8        52.500  
E33  27605629.945 1 145068581.734 5        35.600    27605638.879 1 108330451.347 7        44.400  
E27  26973424.164 1 141746291.325 7        42.600    26973428.770 1 105849523.539 6        40.200  
E15  27936305.547 1 146806306.617 6        37.800    27936313.625 1 109628128.587 6        41.200  
> 2020 05 14 22 43 30.0000000  0 23                     
R08  24159251.531 1 129371640.787 5        31.900    24159248.953 1
G12  20120069.563 1 105731714.434 8        52.500                                                  
G02  21607613.641 1 113548858.508 8        49.600                                                  
R06  23552806.555 1 125682258.655 6        36.800    23552806.102 1
R07  22997956.469 1 123109828.904 7        42.600    22997954.488 1
R12  20501899.344 1 109517462.589 8        50.000    20501898.941 1
G05  22026786.109 1 115751581.201 8        48.200                                                  
R22  20963424.852 1 111904095.404 8        48.700    20963423.734 1
R23  20200740.617 1 108060361.339 8        50.100    20200739.500 1
G06  23453267.500 1 123247728.286 7        43.500    23453277.246 1  92035755.839 7        46.000  
R14  23289490.352 1 124146075.927 6        41.100    23289489.230 1
R24  22737251.641 1 121586165.393 7        42.600    22737251.289 1
G19  25193114.586 1 132390687.079 5        33.400                                                  
G24  24341865.445 1 127917460.865 6        39.700    24341878.625 1  95522760.230 7        46.700  
R13  19854843.453 1 106023592.456 6        40.700    19854841.855 1
G25  20623125.914 1 108375212.390 8        49.800    20623135.875 1  80929662.001 9        54.100  
G29  22541385.492 1 118455825.827 7        44.000                                                  
E13  24025661.906 1 126255758.966 8        49.700    24025666.059 1  94281946.457 8        51.300  
E01  24672224.523 1 129653435.901 8        51.400    24672229.086 1  96819144.936 8        50.400  
E21  23842981.148 1 125295767.438 8        53.000    23842986.145 1  93565069.675 8        52.300  
E33  27592522.477 1 144999696.698 6        39.000    27592530.359 1 108279011.311 7        43.700  
E27  26990629.844 1 141836709.057 7        42.300    26990638.344 1 105917043.141 7        42.800  
E15  27950607.453 1 146881465.025 6        38.900    27950615.672 1 109684253.319 6        40.400  
> 2020 05 14 22 44 00.0000000  0 23                     
R08  24138996.914 1 129263198.378 5        31.800    24138996.762 1
G12  20123354.477 1 105748975.011 8        53.500                                                  
G02  21618212.047 1 113604553.493 8        49.500                                                  
R06  23556483.992 1 125701889.625 5        35.400    23556484.613 1
R07  22985540.578 1 123043367.867 7        43.900    22985539.121 1
R12  20520310.109 1 109615811.103 8        50.600    20520309.746 1
G05  22013025.617 1 115679273.362 7        46.700                                                  
R22  20977012.859 1 111976629.232 8        49.300    20977011.645 1
R23  20195495.508 1 108032303.504 8        49.900    20195494.156 1
G06  23471532.961 1 123343716.787 7        43.400    23471542.926 1  92107435.544 7        46.000  
R14  23267583.039 1 124029306.283 6        39.600    23267582.207 1
R24  22722545.586 1 121507528.756 7        42.400    22722544.789 1
G19  25209446.266 1 132476506.428 5        33.800                                                  
G24  24360008.680 1 128012808.042 6        39.200    24360021.777 1  95593960.900 7        46.200  
R13  19850333.258 1 105999507.368 6        40.700    19850331.617 1
G25  20615195.719 1 108333538.465 8        49.300    20615205.508 1  80898541.860 9        54.300  
G29  22529297.352 1 118392297.698 7        45.500                                                  
E13  24034411.563 1 126301738.265 8        50.100    24034415.590 1  94316281.658 8        51.400  
E01  24664043.609 1 129610444.594 8        51.800    24664048.355 1  96787041.039 8        50.600  
E21  23850794.336 1 125336827.962 8        53.300    23850799.723 1  93595731.741 8        52.000  
E33  27579441.906 1 144930946.743 6        41.600    27579448.063 1 108227672.130 7        43.200  
E27  27007856.969 1 141927234.173 7        43.700    27007864.555 1 105984642.938 7        43.200  
E15  27964899.461 1 146956562.605 6        40.800    27964905.898 1 109740332.640 6        39.100  
> 2020 05 14 22 44 30.0000000  0 23                     
R08  24118742.094 1 129154729.188 5        31.200    24118741.262 1
G12  20126738.289 1 105766757.448 8        52.400                                                  
G02  21628857.391 1 113660498.428 8        49.600                                                  
R06  23560297.297 1 125722225.361 5        34.100    23560295.598 1
R07  22973218.633 1 122977408.263 7        43.100    22973217.262 1
R12  20538821.664 1 109714695.723 8        50.200    20538821.441 1
G05  21999343.578 1 115607371.378 7        47.500                                                  
R22  20990623.859 1 112049281.957 8        49.200    20990622.410 1
R23  20190315.367 1 108004594.333 8        51.000    20190314.316 1
G06  23489820.195 1 123439815.968 7        43.400    23489829.691 1  92179197.906 7        46.200  
R14  23245735.047 1 123912839.445 6        39.600    23245733.250 1
R24  22707884.492 1 121429130.970 7        42.900    22707884.629 1
G19  25225774.641 1 132562328.42215        31.600                                                  
G24  24378149.586 1 128108135.869 6        38.900    24378160.828 1  95665147.110 7        45.100  
R13  19845975.227 1 105976230.870 6        40.300    19845973.082 1
G25  20607355.023 1 108292335.327 8        49.500    20607364.891 1  80867773.286 9        54.500  
G29  22517230.188 1 118328884.370 7        45.500                                                  
E13  24043187.070 1 126347854.661 8        49.400    24043191.352 1  94350719.223 8        51.300  
E01  24655926.164 1 129567786.458 8        51.500    24655930.770 1  96755185.946 8        51.200  
E21  23858678.773 1 125378261.368 8        52.700    23858684.207 1  93626672.263 8        51.900  
E33  27566384.859 1 144862332.863 7        42.100    27566389.879 1 108176434.572 6        41.800  
E27  27025104.375 1 142017866.084 7        42.900    27025109.484 1 106052322.533 6        41.000  
E15  27979178.000 1 147031599.410 6        39.000    27979185.129 1 109796366.636 6        39.200  
> 2020 05 14 22 45 00.0000000  0 23                     
R08  24098502.922 1 129046237.188 5        31.300    24098491.426 1
G12  20130221.609 1 105785062.306 8        53.200                                                  
G02  21639551.805 1 113716691.796 8        49.300                                                  
R06  23564238.047 1 125743265.404 5        33.800    23564237.930 1
R07  22960991.023 1 122911954.284 7        42.600    22960989.180 1
R12  20557433.109 1 109814112.824 8        49.400    20557432.332 1
G05  21985737.766 1 115535878.546 7        47.100                                                  
R22  21004256.102 1 112122052.281 8        49.300    21004254.523 1
R23  20185200.320 1 107977233.288 8        50.500    20185199.215 1
G06  23508127.180 1 123536024.230 7        42.800    23508137.637 1  92251041.697 7        45.600  
R14  23223942.953 1 123796679.928 6        41.600    23223942.711 1
R24  22693268.516 1 121350972.549 6        41.700    22693268.066 1
G19  25242109.266 1 132648153.833 5        33.200                                                  
G24  24396285.102 1 128203441.986 6        38.300    24396298.574 1  95736317.152 7        45.800  
R13  19841767.383 1 105953764.149 6        40.600    19841765.414 1
G25  20599604.375 1 108251605.272 8        49.400    20599614.336 1  80837358.003 9        54.600  
G29  22505185.406 1 118265586.359 7        46.300                                                  
E13  24051988.734 1 126394107.359 8        49.400    24051993.176 1  94385258.580 8        51.300  
E01  24647872.234 1 129525463.356 8        51.600    24647876.895 1  96723581.025 8        50.600  
E21  23866634.734 1 125420067.563 8        53.800    23866639.277 1  93657891.159 8        51.700  
E33  27553354.125 1 144793855.771 7        42.900    27553359.352 1 108125299.096 6        41.400  
E27  27042370.820 1 142108603.802 7        43.300    27042378.652 1 106120081.126 6        41.800  
E15  27993445.563 1 147106575.369 6        40.000    27993452.441 1 109852355.174 6        40.400  
> 2020 05 14 22 45 30.0000000  0 23                     
G31  25019271.898 1 131477121.89715        30.700                                                  
G12  20133804.438 1 105803889.935 8        53.000                                                  
G02  21650291.352 1 113773131.407 8        48.700                                                  
R06  23568314.625 1 125765009.038 5        33.600    23568313.258 1
R07  22948857.898 1 122847009.624 7        42.400    22948857.336 1
R12  20576143.203 1 109914058.795 8        48.300    20576142.266 1
G05  21972211.906 1 115464797.172 7        47.500                                                  
R22  21017910.078 1 112194938.257 8        48.500    21017908.586 1
R23  20180150.711 1 107950219.091 8        50.200    20180149.137 1
G06  23526456.250 1 123632339.076 7        43.600    23526466.281 1  92322965.110 7        46.300  
R14  23202210.266 1 123680831.263 6        41.700    23202209.586 1
R24  22678695.500 1 121273053.249 6        39.900    22678695.500 1
G19  25258443.047 1 132733982.88115        33.700                                                  
G24  24414416.727 1 128298723.822 6        38.500    24414430.973 1  95807469.049 7        46.700  
R13  19837710.266 1 105932108.888 6        40.200    19837710.059 1
G25  20591944.031 1 108211349.910 8        50.000    20591953.938 1  80807297.172 9        54.700  
G29  22493162.375 1 118202403.854 7        45.700                                                  
E13  24060816.000 1 126440494.904 8        49.000    24060820.238 1  94419898.629 8        51.400  
E01  24639882.570 1 129483476.411 8        51.400    24639886.934 1  96692227.149 8        50.500  
E21  23874660.813 1 125462245.690 8        53.800    23874665.664 1  93689387.792 8        51.500  
E33  27540348.961 1 144725515.291 6        41.600    27540355.547 1 108074265.658 6        41.200  
E27  27059657.938 1 142199445.566 7        43.600    27059664.945 1 106187917.405 7        42.800  
E15  28007702.289 1 147181489.607 6        40.300    28007708.879 1 109908297.574 6        40.700  
> 2020 05 14 22 46 00.0000000  0 24                     
R08  24057948.141 1 128829423.23714        28.900                  
G31  25008722.938 1 131421687.846 5        31.800                                                  
G12  20137486.602 1 105823239.877 8        52.700                                                  
G02  21661077.492 1 113829815.327 8        49.300                                                  
R06  23572520.695 1 125787455.673 5        31.500    23572517.816 1
R07  22936822.242 1 122782577.642 7        42.300    22936820.848 1
R12  20594951.117 1 110014529.473 8        49.200    20594950.707 1
G05  21958765.453 1 115394129.968 7        46.700                                                  
R22  21031585.469 1 112267937.832 8        49.900    21031584.242 1
R23  20175165.023 1 107923550.648 8        50.100    20175163.789 1
G06  23544804.031 1 123728758.224 7        43.400    23544814.531 1  92394966.370 7        46.800  
R14  23180536.719 1 123565297.441 6        41.100    23180535.887 1
R24  22664169.906 1 121195372.815 7        42.000    22664169.637 1
G19  25274778.195 1 132819813.705 5        33.500                                                  
G24  24432542.969 1 128393977.936 6        37.400    24432557.270 1  95878600.259 7        46.800  
R13  19833808.773 1 105911266.138 6        40.000    19833806.645 1
G25  20584374.422 1 108171570.951 8        49.700    20584384.215 1  80777592.108 9        54.900  
G29  22481160.109 1 118139336.910 7        46.300                                                  
E13  24069668.734 1 126487015.940 8        49.900    24069672.957 1  94454638.357 8        51.400  
E01  24631956.789 1 129441826.852 8        51.800    24631960.977 1  96661125.199 8        50.300  
E21  23882758.000 1 125504795.009 9        54.500    23882762.152 1  93721161.623 8        51.500  
E33  27527369.422 1 144657311.558 6        39.400    27527375.871 1 108023334.315 6        41.500  
E27  27076964.258 1 142290389.854 7        43.400    27076971.457 1 106255830.246 7        42.100  
E15  28021945.859 1 147256341.366 6        39.700    28021952.473 1 109964193.313 6        40.100  
> 2020 05 14 22 46 30.0000000  0 24                     
R08  24037685.531 1 128720729.12715        33.400    24037684.055 1
G31  24998255.406 1 131366699.28315        30.100                                                  
G12  20141268.141 1 105843112.831 8        52.900                                                  
G02  21671910.367 1 113886741.521 8        49.000                                                  
R06  23576858.234 1 125810605.186 5        32.600    23576857.246 1
R07  22924882.039 1 122718662.405 6        41.700    22924880.102 1
R12  20613857.977 1 110115521.458 8        49.100    20613856.945 1
G05  21945396.633 1 115323880.421 7        47.000                                                  
R22  21045282.602 1 112341049.350 8        48.900    21045280.391 1
R23  20170244.047 1 107897226.759 8        50.300    20170242.895 1
G06  23563171.563 1 123825279.783 7        43.800    23563182.797 1  92467044.144 7        47.200  
R14  23158923.117 1 123450082.553 6        39.900    23158922.055 1
R24  22649690.273 1 121117931.720 7        43.200    22649688.672 1
G19  25291109.539 1 132905648.25715        32.800                                                  
G24  24450664.977 1 128489202.473 6        37.900    24450677.574 1  95949709.358 7        46.500  
R13  19830057.992 1 105891237.390 6        40.500    19830055.918 1
G25  20576896.070 1 108132270.473 8        49.500    20576905.629 1  80748244.342 9        54.700  
G29  22469181.273 1 118076385.497 7        45.400                                                  
E13  24078546.602 1 126533669.521 8        49.100    24078550.918 1  94489477.064 8        51.500  
E01  24624095.648 1 129400516.347 8        51.400    24624099.949 1  96630276.450 8        50.600  
E21  23890925.461 1 125547715.200 9        54.000    23890929.688 1  93753212.397 8        51.400  
E33  27514417.320 1 144589244.957 6        40.400    27514423.770 1 107972505.486 7        42.700  
E27  27094289.055 1 142381435.394 7        43.100    27094297.480 1 106323818.687 7        42.300  
E15  28036177.945 1 147331130.377 6        40.700    28036183.059 1 110020042.179 6        39.000  
> 2020 05 14 22 47 00.0000000  0 24                     
R08  24017415.383 1 128612186.376 5        33.100    24017413.879 1
G31  24987880.703 1 131312156.35814        29.100                                                  
G12  20145149.664 1 105863508.608 8        51.900                                                  
G02  21682789.023 1 113943907.817 7        47.800                                                  
R06  23581330.508 1 125834456.175 5        32.100    23581326.309 1
R07  22913040.117 1 122655267.115 7        42.900    22913038.137 1
R12  20632859.875 1 110217030.511 8        48.700    20632859.031 1
G05  21932109.133 1 115254051.223 7        47.100                                                  
R22  21058998.609 1 112414270.718 8        48.300    21058997.137 1
R23  20165386.805 1 107871245.890 8        50.200    20165386.109 1
G06  23581557.734 1 123921901.144 7        42.000    23581569.438 1  92539196.418 7        47.700  
R14  23137368.828 1 123335190.147 6        38.700    23137368.875 1
R24  22635250.398 1 121040729.588 7        42.000    22635251.031 1
G19  25307443.633 1 132991483.81314        28.000                                                  
G24  24468778.359 1 128584393.783 6        36.200    24468791.887 1  96020793.659 7        45.800  
R13  19826459.672 1 105872023.450 6        40.900    19826458.066 1
G25  20569508.414 1 108093449.798 8        49.200    20569518.090 1  80719254.890 9        54.600  
G29  22457224.195 1 118013549.414 7        45.300                                                  
E13  24087449.289 1 126580453.922 8        49.700    24087453.453 1  94524413.458 8        51.500  
E01  24616299.203 1 129359545.775 8        51.500    24616303.664 1  96599681.530 8        50.300  
E21  23899162.883 1 125591005.136 8        53.400    23899167.949 1  93785539.275 8        51.600  
E33  27501490.164 1 144521315.371 6        40.900    27501497.254 1 107921778.922 7        44.000  
E27  27111633.711 1 142472580.302 7        42.900    27111641.316 1 106391881.393 6        40.400  
E15  28050397.813 1 147405855.416 7        42.300    28050403.340 1 110075843.352 6        39.900  
> 2020 05 14 22 47 30.0000000  0 23                     
R08  23997145.727 1 128503641.860 5        33.600    23997143.277 1
G12  20149130.461 1 105884427.797 8        52.900                                                  
G02  21693712.609 1 114001312.906 8        49.200                                                  
R06  23585930.984 1 125859008.850 5        32.900    23585927.824 1
R07  22901295.273 1 122592396.355 6        41.700    22901293.195 1
R12  20651957.484 1 110319053.252 8        48.100    20651957.789 1
G05  21918899.852 1 115184644.962 7        45.800                                                  
R22  21072735.977 1 112487600.692 8        49.100    21072734.211 1
R23  20160594.430 1 107845607.804 8        50.900    20160593.418 1
G06  23599963.367 1 124018620.842 7        42.100    23599974.680 1  92611422.124 7        47.800  
R14  23115875.852 1 123220624.995 6        37.900    23115875.391 1
R24  22620860.258 1 120963766.602 6        41.800    22620858.355 1
G19  25323778.617 1 133077322.734 5        31.500                                                  
G24  24486886.633 1 128679550.352 6        38.100    24486899.180 1  96091851.986 7        47.000  
R13  19823014.172 1 105853625.900 6        41.300    19823012.547 1
G25  20562212.680 1 108055111.395 8        48.900    20562222.594 1  80690625.554 9        54.600  
G29  22445288.445 1 117950829.634 7        45.600                                                  
E13  24096376.781 1 126627368.610 8        49.600    24096381.086 1  94559447.149 8        51.800  
E01  24608567.727 1 129318917.117 8        50.500    24608572.258 1  96569341.944 8        50.500  
E21  23907471.156 1 125634664.821 8        53.500    23907476.148 1  93818142.278 8        51.700  
E33  27488590.078 1 144453523.520 6        41.700    27488596.789 1 107871155.231 7        43.700  
E27  27128997.344 1 142563823.811 7        43.600    27129005.734 1 106460017.674 7        42.800  
E15  28064605.195 1 147480516.641 6        41.900    28064611.363 1 110131596.824 6        40.200  
> 2020 05 14 22 48 00.0000000  0 23                     
R08  23976875.313 1 128395098.422 5        30.700    23976873.129 1
G12  20153210.461 1 105905869.782 8        52.900                                                  
G02  21704681.430 1 114058954.058 8        48.200                                                  
R06  23590660.086 1 125884261.673 5        31.800    23590658.996 1
R07  22889646.203 1 122530052.829 6        40.600    22889646.180 1
R12  20671153.047 1 110421585.260 8        49.000    20671152.168 1
G05  21905773.773 1 115115663.670 7        47.000                                                  
R22  21086492.922 1 112561036.650 8        48.200    21086490.852 1
R23  20155865.156 1 107820310.842 8        51.000    20155864.109 1
G06  23618385.742 1 124115436.008 7        42.100    23618397.844 1  92683719.141 7        47.800  
R14  23094447.563 1 123106390.073 6        36.500    23094445.852 1
R24  22606511.313 1 120887042.467 7        42.600    22606511.512 1
G19  25340113.664 1 133163163.31515        32.200                                                  
G24  24504985.375 1 128774667.878 6        38.300    24505001.020 1  96162881.143 7        46.600  
R13  19819722.078 1 105836045.653 6        41.700    19819720.203 1
G25  20555008.969 1 108017256.299 8        49.100    20555019.168 1  80662357.144 9        54.700  
G29  22433376.672 1 117888225.438 7        44.500                                                  
E13  24105328.719 1 126674411.661 8        50.000    24105333.219 1  94594576.693 8        51.300  
E01  24600901.758 1 129278631.025 8        51.500    24600906.012 1  96539258.166 8        50.800  
E21  23915849.289 1 125678692.914 8        53.300    23915854.480 1  93851020.387 8        52.000  
E33  27475714.805 1 144385868.905 6        41.100    27475722.270 1 107820634.020 7        43.500  
E27  27146378.602 1 142655163.637 7        43.500    27146386.492 1 106528225.859 7        42.100  
E15  28078798.586 1 147555112.828 6        40.300    28078805.801 1 110187301.702 6        40.100  
> 2020 05 14 22 48 30.0000000  0 24                     
R08  23956602.859 1 128286562.133 5        33.900    23956603.121 1
G31  24957253.477 1 131151228.77414        29.600                                                  
G12  20157390.469 1 105927836.662 8        53.000                                                  
G02  21715695.320 1 114116830.995 8        48.600                                                  
R06  23595526.695 1 125910215.622 5        33.700    23595524.980 1
R07  22878101.711 1 122468241.773 7        42.600    22878100.336 1
R12  20690442.156 1 110524624.148 8        49.700    20690441.441 1
G05  21892728.539 1 115047111.725 7        46.300                                                  
R22  21100269.078 1 112634578.571 8        48.200    21100267.762 1
R23  20151200.000 1 107795354.951 8        50.900    20151198.977 1
G06  23636826.984 1 124212346.049 6        41.500    23636839.082 1  92756086.974 7        47.200  
R14  23073077.883 1 122992491.102 5        33.500    23073077.250 1
R24  22592209.672 1 120810558.455 6        41.900    22592208.379 1
G19  25356445.695 1 133249006.991 4        28.000                                                  
G24  24523079.867 1 128869745.496 6        38.200    24523092.520 1  96233880.513 7        46.200  
R13  19816583.141 1 105819285.192 6        41.600    19816581.754 1
G25  20547898.328 1 107979887.810 8        49.700    20547908.148 1  80634452.118 9        54.800  
G29  22421484.375 1 117825738.747 7        45.300                                                  
E13  24114305.422 1 126721583.390 8        49.500    24114309.691 1  94629802.327 8        51.300  
E01  24593301.039 1 129238690.374 8        51.200    24593305.727 1  96509432.363 8        50.800  
E21  23924297.789 1 125723090.240 8        53.500    23924303.023 1  93884174.221 8        51.800  
E33  27462867.555 1 144318353.117 6        40.700    27462874.824 1 107770216.493 7        43.700  
E27  27163778.609 1 142746599.905 7        43.800    27163784.605 1 106596506.063 6        40.000  
E15  28092981.188 1 147629644.804 6        38.700    28092989.250 1 110242958.679 6        40.200  
> 2020 05 14 22 49 00.0000000  0 24                     
R08  23936339.586 1 128178035.82114        29.200    23936337.805 1
G31  24947221.328 1 131098487.863 5        32.200                                                  
G12  20161670.453 1 105950327.160 8        53.000                                                  
G02  21726753.031 1 114174940.431 7        47.800                                                  
R06  23600521.938 1 125936868.244 5        33.300    23600518.184 1
R07  22866653.633 1 122406965.354 6        41.400    22866652.250 1
R12  20709825.531 1 110628164.989 8        49.300    20709824.945 1
G05  21879765.977 1 114978991.258 7        45.600                                                  
R22  21114065.594 1 112708223.528 8        48.300    21114064.477 1
R23  20146598.250 1 107770738.173 8        50.300    20146597.180 1
G06  23655285.445 1 124309347.627 6        40.300    23655298.035 1  92828523.207 7        47.500  
R14  23051772.523 1 122878930.961 5        33.800    23051772.426 1
R24  22577951.141 1 120734313.289 6        41.900    22577949.590 1
G19  25372783.930 1 133334852.56814        29.100                                                  
G24  24541164.141 1 128964779.489 6        39.400    24541176.543 1  96304847.303 7        45.900  
R13  19813599.031 1 105803343.866 6        41.500    19813596.707 1
G25  20540879.328 1 107943006.507 8        49.600    20540889.711 1  80606910.896 9        54.600  
G29  22409615.648 1 117763368.195 7        44.500                                                  
E13  24123305.945 1 126768881.383 8        48.900    24123310.277 1  94665122.262 8        51.300  
E01  24585766.359 1 129199095.300 8        50.900    24585770.984 1  96479864.618 8        50.900  
E21  23932816.430 1 125767854.985 8        53.400    23932821.297 1  93917602.424 8        51.900  
E33  27450046.406 1 144250975.253 6        41.800    27450053.129 1 107719901.935 7        44.300  
E27  27181195.563 1 142838129.921 7        43.700    27181203.828 1 106664856.308 7        42.300  
E15  28107151.008 1 147704110.908 6        39.000    28107159.949 1 110298566.447 6        37.800  
> 2020 05 14 22 49 30.0000000  0 24                     
R08  23916079.844 1 128069523.444 4        28.100    23916076.141 1
G31  24937268.359 1 131046200.56414        28.300                                                  
G12  20166050.336 1 105973341.299 8        52.300                                                  
G02  21737854.438 1 114233280.181 8        48.400                                                  
R06  23605647.008 1 125964219.196 5        32.900    23605644.105 1
R07  22855307.992 1 122346227.383 6        41.600    22855306.336 1
R12  20729301.102 1 110732203.544 8        49.300    20729301.219 1
G05  21866885.203 1 114911304.853 7        46.400                                                  
R22  21127881.430 1 112781969.241 8        48.400    21127879.762 1
R23  20142059.086 1 107746459.325 8        50.500    20142058.063 1
G06  23673761.125 1 124406438.422 6        40.600    23673773.402 1  92901026.041 7        46.600  
R14  23030535.555 1 122765713.282 5        35.300    23030534.211 1
R24  22563737.148 1 120658306.918 7        42.600    22563736.070 1
G19  25389121.250 1 133420700.21214        26.400                                                  
G24  24559239.258 1 129059766.908 6        39.000    24559251.270 1  96375779.344 7        45.100  
R13  19810767.453 1 105788222.801 6        41.800    19810764.969 1
G25  20533954.320 1 107906613.873 8        49.500    20533964.258 1  80579734.582 9        54.500  
G29  22397769.180 1 117701113.788 7        44.100                                                  
E13  24132330.500 1 126816304.188 8        49.700    24132334.520 1  94700535.386 8        51.300  
E01  24578297.805 1 129159846.873 8        51.400    24578302.184 1  96450555.725 8        50.400  
E21  23941404.656 1 125812986.139 8        53.300    23941409.305 1  93951304.242 8        51.800  
E33  27437250.969 1 144183735.157 6        41.900    27437256.957 1 107669690.217 7        43.600  
E27  27198631.016 1 142929751.892 7        43.600    27198637.473 1 106733275.217 6        40.900  
E15  28121309.375 1 147778510.189 6        37.900    28121316.063 1 110354124.353 6        36.800  
> 2020 05 14 22 50 00.0000000  0 22                     
G12  20170529.148 1 105996879.747 8        52.300                                                  
G02  21748999.930 1 114291849.247 8        49.100                                                  
R06  23610898.922 1 125992268.360 5        31.500    23610898.922 1
R07  22844062.477 1 122286032.114 7        42.200    22844061.629 1
R12  20748870.477 1 110836736.858 8        48.800    20748870.383 1
G05  21854088.742 1 114844055.515 7        46.000                                                  
R22  21141714.477 1 112855815.301 8        48.200    21141713.207 1
R23  20137583.516 1 107722517.608 8        50.200    20137582.574 1
G06  23692255.281 1 124503617.250 6        41.500    23692265.379 1  92973594.622 7        45.800  
R14  23009358.805 1 122652842.932 5        32.000    23009359.270 1
R24  22549567.914 1 120582539.894 7        42.700    22549567.258 1
G19  25405458.852 1 133506549.18514        27.600                                                  
G24  24577306.828 1 129154706.048 6        39.600    24577318.086 1  96446675.288 7        45.500  
R13  19808089.656 1 105773924.685 7        42.600    19808087.438 1
G25  20527122.492 1 107870712.558 8        50.400    20527132.520 1  80552925.166 9        54.600  
G29  22385945.164 1 117638976.676 7        44.300                                                  
E13  24141378.234 1 126863851.542 8        50.200    24141382.281 1  94736041.523 8        51.200  
E01  24570895.523 1 129120947.322 8        51.500    24570899.789 1  96421507.362 8        50.500  
E21  23950062.469 1 125858483.993 8        53.300    23950067.348 1  93985279.901 8        52.100  
E33  27424482.070 1 144116634.013 6        41.500    27424487.738 1 107619582.256 7        44.000  
E27  27216082.820 1 143021465.414 6        41.600    27216091.051 1 106801762.478 7        42.100  
E15  28135454.539 1 147852843.223 5        34.800    28135463.398 1 110409632.736 6        38.600  
> 2020 05 14 22 50 30.0000000  0 21                     
G12  20175108.234 1 106020943.156 8        52.800                                                  
G02  21760188.555 1 114350646.417 7        47.900                                                  
R06  23616290.797 1 126021014.993 5        33.700    23616287.789 1
R07  22832919.719 1 122226383.553 6        41.700    22832918.875 1
R12  20768531.531 1 110941761.500 8        49.400    20768531.227 1
G05  21841375.828 1 114777247.005 7        46.300                                                  
R22  21155567.008 1 112929760.280 8        48.300    21155565.609 1
R23  20133170.906 1 107698912.699 8        51.300    20133170.176 1
G06  23710764.063 1 124600882.543 6        41.300    23710773.957 1  93046227.779 7        45.400  
R14  22988252.953 1 122540324.463 5        32.600    22988251.047 1
R24  22535442.984 1 120507012.787 6        41.200    22535442.211 1
G24  24595362.602 1 129249594.525 6        40.000    24595376.074 1  96517533.439 7        45.700  
R13  19805566.047 1 105760449.962 7        42.600    19805564.137 1
G25  20520385.180 1 107835304.777 8        50.500    20520394.961 1  80526484.286 9        54.700  
G29  22374142.953 1 117576957.424 7        44.300                                                  
E13  24150449.648 1 126911522.734 8        49.700    24150454.098 1  94771640.149 8        51.200  
E01  24563559.719 1 129082398.475 8        51.700    24563564.223 1  96392720.899 8        50.600  
E21  23958790.008 1 125904348.311 8        52.900    23958795.211 1  94019529.212 8        52.200  
E33  27411737.773 1 144049672.246 6        39.300    27411745.102 1 107569578.463 7        43.900  
E27  27233552.891 1 143113269.287 7        42.100    27233559.840 1 106870317.243 6        41.500  
E15  28149589.633 1 147927109.837 6        38.900    28149594.625 1 110465091.460 6        38.500  
> 2020 05 14 22 51 00.0000000  0 22                     
R08  23855310.492 1 127744084.155 5        32.900    23855306.723 1
G12  20179787.492 1 106045531.350 8        52.300                                                  
G02  21771420.563 1 114409669.187 8        48.100                                                  
R06  23621805.836 1 126050458.379 5        33.700    23621805.129 1
R07  22821879.914 1 122167285.086 7        42.400    22821878.859 1
R12  20788283.617 1 111047273.454 8        49.500    20788282.711 1
G05  21828745.969 1 114710881.548 7        45.500                                                  
R22  21169438.008 1 113003802.264 8        48.100    21169436.746 1
R23  20128820.977 1 107675643.189 8        50.700    20128820.012 1
G06  23729289.141 1 124698231.866 7        42.300    23729299.594 1  93118923.689 7        46.000  
R14  22967212.695 1 122428161.301 5        34.000    22967211.398 1
R24  22521364.797 1 120431725.265 7        42.400    22521364.219 1
G24  24613408.664 1 129344429.986 6        38.000    24613421.859 1  96588351.989 7        46.000  
R13  19803196.492 1 105747799.662 7        43.000    19803195.336 1
G25  20513741.305 1 107800391.897 8        49.300    20513751.086 1  80500412.995 9        54.700  
G29  22362363.664 1 117515055.757 7        44.200                                                  
E13  24159544.711 1 126959316.280 8        49.500    24159548.781 1  94807330.122 8        51.300  
E01  24556291.039 1 129044201.302 8        51.200    24556295.547 1  96364197.037 8        51.400  
E21  23967587.078 1 125950577.996 8        52.600    23967592.496 1  94054051.373 8        52.000  
E33  27399021.820 1 143982849.824 6        37.200    27399029.543 1 107519678.688 7        43.500  
E27  27251039.828 1 143205161.878 6        41.800    27251047.734 1 106938938.193 7        42.700  
E15  28163708.781 1 148001309.135 6        39.700    28163716.223 1 110520500.080 6        37.600  
> 2020 05 14 22 51 30.0000000  0 22                     
R08  23835064.313 1 127635672.240 5        33.300    23835063.102 1
G12  20184565.758 1 106070642.765 8        51.400                                                  
G02  21782694.297 1 114468913.966 7        47.900                                                  
R06  23627456.125 1 126080595.525 5        34.100    23627452.926 1
R07  22810943.961 1 122108738.729 7        42.300    22810941.293 1
R12  20808125.898 1 111153266.935 8        48.900    20808125.387 1
G05  21816201.508 1 114644960.572 7        45.800                                                  
R22  21183326.195 1 113077937.862 7        47.900    21183324.188 1
R23  20124533.281 1 107652706.274 8        50.300    20124532.262 1
G06  23747828.289 1 124795661.586 6        41.100    23747839.992 1  93191679.631 7        46.300  
R14  22946240.727 1 122316356.440 5        34.000    22946236.457 1
R24  22507330.352 1 120356675.430 7        43.300    22507329.789 1
G24  24631446.633 1 129439207.304 6        39.200    24631459.785 1  96659127.125 7        47.200  
R13  19800981.977 1 105735972.820 7        42.700    19800980.273 1
G25  20507191.547 1 107765974.053 8        49.100    20507201.590 1  80474711.359 9        54.800  
G29  22350606.820 1 117453270.562 7        44.600                                                  
E13  24168661.867 1 127007229.376 8        49.100    24168666.457 1  94843109.393 8        51.300  
E01  24549089.313 1 129006355.545 8        51.500    24549093.707 1  96335935.602 8        51.000  
E21  23976453.609 1 125997170.798 8        52.900    23976458.727 1  94088844.682 8        52.200  
E33  27386332.977 1 143916165.204 6        40.100    27386340.477 1 107469881.824 6        41.700  
E27  27268542.563 1 143297140.011 6        41.900    27268550.461 1 107007623.049 7        42.400  
E15  28177815.164 1 148075439.082 6        38.500    28177820.941 1 110575856.774 6        36.700  
> 2020 05 14 22 52 00.0000000  0 22                     
R08  23814820.695 1 127527294.810 5        32.300    23814822.660 1
G12  20189443.789 1 106096277.358 8        50.900                                                  
G02  21794010.453 1 114528379.244 7        47.900                                                  
R06  23633232.008 1 126111425.803 5        33.700    23633230.496 1
R07  22800109.516 1 122050747.768 6        41.800    22800108.145 1
R12  20828057.078 1 111259738.198 8        49.700    20828056.633 1
G05  21803743.109 1 114579486.328 7        46.500                                                  
R22  21197230.867 1 113152165.479 7        47.800    21197230.051 1
R23  20120307.516 1 107630100.817 8        50.300    20120306.363 1
G06  23766383.063 1 124893169.810 6        41.000    23766393.887 1  93264494.205 7        45.500  
R14  22925334.383 1 122204913.533 6        36.500    22925331.250 1
R24  22493338.984 1 120281863.632 6        41.300    22493337.930 1
G24  24649470.422 1 129533924.609 6        37.600    24649482.379 1  96729857.401 7        46.100  
R13  19798921.633 1 105724970.844 7        42.900    19798919.980 1
G25  20500736.508 1 107732053.089 8        49.300    20500746.816 1  80449380.778 9        54.900  
G29  22338871.430 1 117391601.979 7        44.600                                                  
E13  24177801.727 1 127055261.060 8        49.300    24177806.445 1  94878977.201 8        51.200  
E01  24541954.586 1 128968862.626 8        52.000    24541959.156 1  96307937.660 8        51.000  
E21  23985388.992 1 126044126.091 8        52.700    23985394.219 1  94123908.706 8        52.200  
E33  27373670.891 1 143849618.874 7        42.700    27373676.582 1 107420188.135 7        42.100  
E27  27286061.688 1 143389202.410 6        41.800    27286068.672 1 107076370.862 6        41.200  
E15  28191907.273 1 148149499.223 6        37.900    28191916.262 1 110631161.475 6        38.100  
> 2020 05 14 22 52 30.0000000  0 22                     
R08  23794592.125 1 127418957.927 5        33.400    23794592.637 1
G12  20194422.422 1 106122437.056 8        51.500                                                  
G02  21805367.188 1 114588064.303 7        47.300                                                  
R06  23639141.195 1 126142949.977 5        34.100    23639138.410 1
R07  22789380.773 1 121993317.468 7        42.200    22789379.652 1
R12  20848077.703 1 111366684.895 8        49.000    20848077.598 1
G05  21791368.328 1 114514463.724 7        45.700                                                  
R22  21211153.820 1 113226485.327 7        47.500    21211152.445 1
R23  20116144.016 1 107607827.417 8        50.700    20116142.875 1
G06  23784951.695 1 124990755.990 6        39.400    23784964.813 1  93337366.968 7        46.500  
R14  22904493.375 1 122093838.227 5        35.400    22904493.656 1
R24  22479393.008 1 120207290.957 7        42.900    22479393.605 1
G24  24667481.227 1 129628579.958 5        35.900    24667495.309 1  96800541.434 7        45.500  
R13  19797016.742 1 105714795.629 7        42.900    19797014.621 1
G25  20494377.109 1 107698632.129 8        49.500    20494386.969 1  80424423.572 9        55.000  
G29  22327158.625 1 117330051.901 7        44.600                                                  
E13  24186964.938 1 127103411.616 8        49.000    24186969.352 1  94914933.779 8        51.200  
E01  24534887.820 1 128931725.337 8        52.000    24534892.016 1  96280205.274 8        51.700  
E21  23994393.109 1 126091444.605 8        52.900    23994398.406 1  94159243.951 8        52.100  
E33  27361034.086 1 143783212.297 7        42.400    27361040.883 1 107370598.862 7        43.200  
E27  27303596.602 1 143481349.078 6        41.900    27303603.578 1 107145181.569 6        41.600  
E15  28205987.180 1 148223490.568 6        37.700    28205995.145 1 110686414.654 6        38.100  
> 2020 05 14 22 53 00.0000000  0 21                     
G12  20199499.727 1 106149121.459 8        51.100                                                  
G02  21816766.813 1 114647967.600 7        47.000                                                  
R06  23645175.055 1 126175166.698 5        32.800    23645174.719 1
R07  22778758.516 1 121936450.937 7        42.500    22778756.531 1
R12  20868186.297 1 111474102.852 8        48.800    20868186.297 1
G05  21779081.914 1 114449894.784 7        46.100                                                  
R22  21225092.961 1 113300895.480 7        46.800    21225091.617 1
R23  20112041.906 1 107585884.825 8        50.700    20112041.059 1
G06  23803538.766 1 125088418.009 6        39.900    23803549.781 1  93410296.357 7        47.000  
R14  22883724.031 1 121983134.435 5        32.400    22883723.539 1
R24  22465494.563 1 120132957.553 7        44.500    22465493.402 1
G24  24685479.922 1 129723171.390 5        35.400    24685494.379 1  96871177.780 7        45.000  
R13  19795266.563 1 105705448.276 7        42.400    19795264.254 1
G25  20488112.539 1 107665712.791 8        48.800    20488122.766 1  80399840.953 9        55.200  
G29  22315467.992 1 117268620.355 7        44.200                                                  
E13  24196150.156 1 127151679.829 8        49.200    24196154.438 1  94950978.229 8        51.100  
E01  24527888.680 1 128894944.895 8        51.900    24527892.949 1  96252739.369 8        50.900  
E21  24003466.703 1 126139125.561 8        52.000    24003471.801 1  94194849.846 8        52.000  
E33  27348423.727 1 143716945.564 6        41.700    27348429.250 1 107321114.079 7        43.500  
E27  27321146.344 1 143573578.428 6        40.800    27321155.051 1 107214054.021 7        42.600  
E15  28220055.305 1 148297412.475 6        38.500    28220063.914 1 110741616.052 6        37.100  
> 2020 05 14 22 53 30.0000000  0 22                     
R08  23754153.773 1 127202422.74915        30.500    23754155.516 1
G12  20204678.047 1 106176330.957 8        51.400                                                  
G02  21828207.688 1 114708087.490 7        47.500                                                  
R06  23651344.070 1 126208075.433 5        33.400    23651342.051 1
R07  22768240.602 1 121880152.538 7        42.800    22768239.977 1
R12  20888383.258 1 111581988.773 8        48.800    20888382.449 1
G05  21766881.547 1 114385782.883 7        46.200                                                  
R22  21239050.133 1 113375394.866 7        47.000    21239048.191 1
R23  20108001.305 1 107564272.579 8        50.300    20108000.223 1
G06  23822136.430 1 125186154.529 6        40.500    23822148.180 1  93483281.378 7        46.700  
R14  22863029.906 1 121872806.983 6        36.500    22863028.941 1
R24  22451637.102 1 120058863.841 7        43.900    22451636.957 1
G24  24703468.617 1 129817696.972 5        35.900    24703483.648 1  96941764.906 7        45.700  
R13  19793670.648 1 105696929.527 7        43.000    19793668.785 1
G25  20481944.242 1 107633297.370 8        49.300    20481954.141 1  80375634.650 9        55.100  
G29  22303801.375 1 117207308.062 7        44.200                                                  
E13  24205357.398 1 127200065.197 8        49.100    24205361.996 1  94987110.145 8        51.500  
E01  24520957.516 1 128858523.214 8        51.600    24520962.246 1  96225541.367 8        51.200  
E21  24012609.023 1 126187168.819 8        53.100    24012614.172 1  94230726.299 8        52.000  
E33  27335840.703 1 143650819.516 7        42.700    27335845.680 1 107271734.283 7        43.000  
E27  27338713.344 1 143665889.627 6        41.600    27338721.746 1 107282987.599 6        41.800  
E15  28234108.750 1 148371265.153 6        37.700    28234114.988 1 110796765.748 5        35.500  
> 2020 05 14 22 54 00.0000000  0 23                     
R08  23733958.594 1 127094231.424 4        28.100    23733952.590 1
G31  24851658.555 1 130596180.155 5        32.500                                                  
G12  20209955.320 1 106204064.000 8        51.100                                                  
G02  21839688.469 1 114768420.239 7        47.100                                                  
R06  23657641.836 1 126241673.434 5        35.000    23657639.496 1
R07  22757830.727 1 121824423.705 6        41.400    22757828.656 1
R12  20908665.961 1 111690336.902 8        48.700    20908665.785 1
G05  21754768.602 1 114322128.779 7        46.300                                                  
R22  21253021.734 1 113449979.893 7        47.200    21253020.332 1
R23  20104022.922 1 107542987.379 8        50.500    20104021.570 1
G06  23840748.695 1 125283961.681 6        39.000    23840760.762 1  93556319.112 7        47.200  
R14  22842403.797 1 121762857.724 6        36.600    22842403.121 1
R24  22437826.266 1 119985007.830 7        43.300    22437824.973 1
G24  24721444.328 1 129912152.165 6        38.000    24721457.336 1  97012299.484 7        45.700  
R13  19792229.539 1 105689238.178 7        42.400    19792228.395 1
G25  20475871.469 1 107601385.575 8        49.200    20475881.520 1  80351804.414 9        55.100  
G29  22292157.000 1 117146113.150 7        44.900                                                  
E13  24214586.297 1 127248564.641 8        49.800    24214591.074 1  95023327.250 8        51.500  
E01  24514095.203 1 128822459.714 8        51.700    24514099.523 1  96198610.829 8        51.500  
E21  24021819.758 1 126235571.736 8        52.800    24021825.016 1  94266871.318 8        52.300  
E33  27323283.461 1 143584832.344 7        42.700    27323289.129 1 107222458.227 7        44.000  
E27  27356292.766 1 143758279.298 6        38.800    27356303.027 1 107351979.765 6        41.900  
E15  28248148.242 1 148445046.432 6        38.600    28248155.086 1 110851862.135 6        36.000  
> 2020 05 14 22 54 30.0000000  0 22                     
G31  24842586.938 1 130548515.718 5        33.300                                                  
G12  20215332.641 1 106232321.133 8        50.900                                                  
G02  21851209.750 1 114828964.677 7        47.000                                                  
R06  23664068.656 1 126275959.803 5        33.700    23664064.441 1
R07  22747527.109 1 121769268.219 6        41.600    22747525.117 1
R12  20929035.711 1 111799143.675 8        49.200    20929035.266 1
G05  21742743.344 1 114258936.183 7        46.300                                                  
R22  21267009.984 1 113524650.070 7        47.200    21267008.781 1
R23  20100105.195 1 107522029.127 8        49.900    20100103.691 1
G06  23859375.797 1 125381837.909 6        40.400    23859385.836 1  93629408.461 7        47.200  
R14  22821848.813 1 121653291.442 5        33.100    22821847.531 1
R24  22424058.664 1 119911389.818 7        44.400    22424058.344 1
G24  24739405.258 1 130006534.567 6        37.800    24739418.973 1  97082779.658 7        45.600  
R13  19790945.484 1 105682375.566 7        42.700    19790943.047 1
G25  20469895.016 1 107569979.619 8        48.800    20469905.152 1  80328351.907 9        55.100  
G29  22280533.867 1 117085036.587 7        45.500                                                  
E13  24223836.883 1 127297177.625 8        48.500    24223841.855 1  95059629.148 8        51.300  
E01  24507301.063 1 128786756.169 8        51.300    24507305.227 1  96171949.095 8        51.200  
E21  24031099.164 1 126284334.050 8        53.100    24031104.266 1  94303284.723 8        52.500  
E33  27310752.609 1 143518984.680 6        41.900    27310758.281 1 107173286.394 7        43.800  
E27  27373890.203 1 143850746.549 6        40.600    27373898.203 1 107421029.881 6        40.900  
E15  28262174.727 1 148518756.176 6        39.200    28262180.367 1 110906905.111 5        31.300  
> 2020 05 14 22 55 00.0000000  0 23                     
R08  23693573.930 1 126878215.21914        28.000                  
G31  24833602.055 1 130501321.781 5        32.400                                                  
G12  20220809.422 1 106261102.747 8        51.500                                                  
G02  21862770.469 1 114889719.754 7        46.800                                                  
R06  23670620.828 1 126310934.394 5        35.600    23670619.176 1
R07  22737331.398 1 121714691.070 7        42.000    22737329.336 1
R12  20949488.914 1 111908406.328 8        48.800    20949488.855 1
G05  21730807.188 1 114196208.358 7        46.800                                                  
R22  21281014.289 1 113599404.467 7        47.100    21281012.711 1
R23  20096248.000 1 107501397.247 8        49.700    20096246.520 1
G06  23878013.234 1 125479782.294 6        40.000    23878024.348 1  93702548.735 7        47.000  
R14  22801366.867 1 121544112.84115        32.100    22801364.789 1
R24  22410336.773 1 119838010.827 7        44.300    22410335.738 1
G24  24757351.563 1 130100843.024 6        38.000    24757365.277 1  97153204.640 7        45.000  
R13  19789816.141 1 105676343.229 7        42.200    19789813.645 1
G25  20464015.711 1 107539082.096 8        49.200    20464025.559 1  80305279.095 9        55.000  
G29  22268933.039 1 117024079.691 7        44.600                                                  
E13  24233109.648 1 127345903.980 8        49.400    24233114.059 1  95096015.713 8        51.200  
E01  24500575.758 1 128751414.882 8        51.100    24500580.039 1  96145557.883 8        51.400  
E21  24040446.539 1 126333455.977 8        52.700    24040451.813 1  94339966.662 8        52.000  
E33  27298248.523 1 143453277.756 6        40.500    27298254.488 1 107124219.593 7        43.100  
E27  27391501.359 1 143943290.871 6        41.200    27391509.633 1 107490137.541 6        41.700  
E15  28276187.289 1 148592394.926 6        38.400    28276194.375 1 110961895.098 5        31.900  
> 2020 05 14 22 55 30.0000000  0 23                     
R08  23673406.578 1 126769978.593 5        31.800    23673406.703 1
G31  24824714.695 1 130454600.584 5        33.200                                                  
G12  20226386.078 1 106290409.708 8        51.300                                                  
G02  21874372.281 1 114950684.382 7        47.300                                                  
R06  23677304.531 1 126346596.911 6        36.900    23677302.750 1
R07  22727245.242 1 121660695.911 7        43.100    22727243.621 1
R12  20970027.680 1 112018121.162 8        48.100    20970027.668 1
G05  21718959.641 1 114133948.153 7        47.100                                                  
R22  21295034.453 1 113674242.159 7        46.700    21295032.102 1
R23  20092451.711 1 107481091.552 8        50.200    20092450.441 1
G06  23896663.359 1 125577793.609 6        40.500    23896675.199 1  93775738.967 7        47.100  
R14  22780961.156 1 121435327.272 5        34.600    22780960.219 1
R24  22396659.977 1 119764871.348 7        44.900    22396659.297 1
G24  24775282.344 1 130195075.417 5        35.200    24775297.031 1  97223572.815 7        45.700  
R13  19788840.602 1 105671142.338 7        42.500    19788839.535 1
G25  20458232.930 1 107508695.370 8        49.100    20458243.098 1  80282587.696 9        55.000  
G29  22257356.984 1 116963243.557 7        44.700                                                  
E13  24242403.656 1 127394743.325 8        49.000    24242407.969 1  95132486.646 8        50.900  
E01  24493919.711 1 128716437.801 8        50.800    24493924.074 1  96119438.634 8        51.700  
E21  24049862.430 1 126382937.434 8        52.900    24049867.871 1  94376917.096 8        52.100  
E33  27285771.477 1 143387712.292 6        41.000    27285778.133 1 107075258.479 7        43.400  
E27  27409127.555 1 144035911.442 6        41.800    27409134.484 1 107559302.185 6        41.200  
E15  28290186.875 1 148665962.914 6        39.300    28290194.176 1 111016832.241 5        35.800  
> 2020 05 14 22 56 00.0000000  0 23                     
R08  23653253.633 1 126662042.30615        30.000    23653249.820 1
G31  24815913.586 1 130408351.122 5        33.200                                                  
G12  20232062.672 1 106320240.038 8        51.300                                                  
G02  21886013.078 1 115011854.796 7        47.400                                                  
R06  23684115.945 1 126382944.545 6        37.000    23684113.758 1
R07  22717266.109 1 121607284.003 6        41.900    22717264.926 1
R12  20990650.820 1 112128282.668 8        48.800    20990650.141 1
G05  21707200.711 1 114072157.230 7        47.100                                                  
R22  21309067.711 1 113749159.865 7        46.800    21309066.652 1
R23  20088716.156 1 107461108.796 8        50.000    20088715.098 1
G06  23915327.680 1 125675868.002 6        40.600    23915338.641 1  93848976.313 7        47.300  
R14  22760627.281 1 121326936.508 5        33.700    22760627.113 1
R24  22383025.898 1 119691969.582 7        44.700    22383025.805 1
G24  24793198.109 1 130289227.621 5        35.200    24793213.633 1  97293881.127 7        45.400  
R13  19788023.953 1 105666771.737 7        42.700    19788021.273 1
G25  20452547.547 1 107478819.124 8        48.500    20452557.887 1  80260277.517 9        55.200  
G29  22245801.930 1 116902526.266 7        44.100                                                  
E13  24251718.211 1 127443692.675 8        49.100    24251722.652 1  95169039.727 8        50.900  
E01  24487332.961 1 128681824.361 8        51.000    24487337.391 1  96093590.939 8        51.100  
E21  24059346.594 1 126432775.778 8        53.000    24059351.758 1  94414134.016 8        52.100  
E33  27273321.281 1 143322286.615 6        41.800    27273328.398 1 107026401.738 7        43.300  
E27  27426765.023 1 144128605.085 6        39.900    27426773.949 1 107628521.327 7        42.000  
E15  28304172.547 1 148739457.826 6        37.100    28304179.906 1 111071714.780 6        36.200  
> 2020 05 14 22 56 30.0000000  0 23                     
R08  23633111.781 1 126554180.35215        31.700    23633107.383 1
G31  24807201.430 1 130362576.191 5        32.300                                                  
G12  20237838.711 1 106350594.258 8        51.800                                                  
G02  21897692.320 1 115073229.987 7        47.300                                                  
R06  23691052.602 1 126419976.197 5        35.600    23691052.633 1
R07  22707398.453 1 121554459.506 7        42.400    22707396.789 1
R12  21011356.039 1 112238887.237 8        48.400    21011356.051 1
G05  21695532.633 1 114010838.332 7        47.500                                                  
R22  21323118.375 1 113824156.765 7        47.300    21323117.012 1
R23  20085040.484 1 107441448.615 8        49.800    20085039.629 1
G06  23934000.906 1 125774004.151 6        39.200    23934013.016 1  93922259.769 7        47.100  
R14  22740364.000 1 121218945.048 5        32.400    22740365.902 1
R24  22369435.727 1 119619305.749 7        43.100    22369436.160 1
G24  24811100.664 1 130383297.428 5        35.700    24811113.680 1  97364127.900 7        44.800  
R13  19787360.750 1 105663232.589 7        42.400    19787358.559 1
G25  20446959.906 1 107449455.549 8        49.000    20446970.152 1  80238350.179 9        55.400  
G29  22234271.617 1 116841928.802 7        44.700                                                  
E13  24261054.156 1 127492751.536 8        49.200    24261058.281 1  95205674.588 8        51.000  
E01  24480815.953 1 128647576.364 8        51.300    24480820.410 1  96068016.152 8        51.500  
E21  24068898.305 1 126482970.783 8        53.300    24068903.625 1  94451617.279 8        52.000  
E33  27260898.930 1 143257001.473 7        42.600    27260903.484 1 106977649.914 7        42.600  
E27  27444418.516 1 144221370.806 6        39.700    27444426.598 1 107697794.314 7        42.400  
E15  28318144.703 1 148812879.927 6        36.500    28318152.637 1 111126542.934 6        37.200  
> 2020 05 14 22 57 00.0000000  0 23                     
R08  23612983.852 1 126446397.214 5        35.900    23612980.875 1
G31  24798580.625 1 130317276.570 5        32.800                                                  
G12  20243715.125 1 106381472.517 8        51.400                                                  
G02  21909409.578 1 115134808.096 7        47.100                                                  
R06  23698123.727 1 126457691.005 6        36.600    23698121.832 1
R07  22697641.031 1 121502226.070 7        43.500    22697639.711 1
R12  21032143.688 1 112349931.212 8        48.500    21032143.711 1
G05  21683954.109 1 113949994.440 7        47.400                                                  
R22  21337182.563 1 113899231.512 7        47.300    21337180.855 1
R23  20081426.258 1 107422110.126 8        50.600    20081424.801 1
G06  23952685.805 1 125872200.424 6        38.200    23952699.121 1  93995588.160 7        46.400  
R14  22720183.336 1 121111357.307 5        32.900    22720182.258 1
R24  22355891.938 1 119546880.221 7        43.500    22355891.992 1
G24  24828983.828 1 130477282.078 5        35.000    24828998.684 1  97434311.080 7        44.600  
R13  19786853.500 1 105660525.333 6        41.700    19786851.383 1
G25  20441470.391 1 107420606.483 8        48.800    20441480.289 1  80216807.046 9        55.400  
G29  22222761.922 1 116781451.747 7        43.900                                                  
E13  24270409.867 1 127541919.068 8        49.000    24270414.430 1  95242390.587 8        51.100  
E01  24474368.633 1 128613695.385 8        51.000    24474373.094 1  96042715.418 8        52.000  
E21  24078517.781 1 126533521.890 8        53.600    24078523.207 1  94489366.466 8        51.900  
E33  27248502.320 1 143191857.186 7        42.400    27248507.871 1 106929003.265 7        42.600  
E27  27462084.281 1 144314207.444 6        40.400    27462093.133 1 107767120.233 7        42.500  
E15  28332103.930 1 148886229.049 6        37.500    28332109.414 1 111181316.553 6        37.500  
> 2020 05 14 22 57 30.0000000  0 23                     
R08  23592869.547 1 126338698.107 5        32.200    23592865.672 1
G31  24790053.648 1 130272454.017 5        34.800                                                  
G12  20249690.703 1 106412874.932 8        51.200                                                  
G02  21921165.922 1 115196587.802 7        46.800                                                  
R06  23705318.578 1 126496087.956 5        35.400    23705316.414 1
R07  22687994.102 1 121450587.350 7        42.900    22687992.730 1
R12  21053012.859 1 112461411.054 8        48.700    21053012.930 1
G05  21672466.781 1 113889628.178 7        47.400                                                  
R22  21351259.094 1 113974383.197 7        46.000    21351258.738 1
R23  20077871.305 1 107403092.498 8        50.300    20077869.613 1
G06  23971385.383 1 125970455.289 6        40.300    23971396.773 1  94068960.237 7        47.300  
R14  22700076.914 1 121004177.889 5        35.400    22700075.473 1
R24  22342393.156 1 119474693.019 7        43.400    22342392.730 1
G24  24846853.484 1 130571180.159 5        35.400    24846867.758 1  97504429.608 7        45.800  
R13  19786501.383 1 105658650.854 6        41.300    19786500.328 1
G25  20436078.117 1 107392273.870 8        48.500    20436088.758 1  80195649.582 9        55.300  
G29  22211277.617 1 116721095.625 7        45.800                                                  
E13  24279787.039 1 127591194.564 8        48.600    24279791.219 1  95279187.219 8        51.100  
E01  24467991.289 1 128580183.035 8        51.200    24467995.930 1  96017689.966 8        51.900  
E21  24088205.219 1 126584428.651 8        53.200    24088210.461 1  94527381.229 8        52.000  
E33  27236132.016 1 143126854.303 7        42.500    27236137.449 1 106880462.186 7        42.400  
E27  27479763.711 1 144407113.842 6        39.600    27479772.254 1 107836498.263 7        42.300  
E15  28346047.469 1 148959505.040 5        35.700    28346055.215 1 111236035.597 5        35.900  
> 2020 05 14 22 58 00.0000000  0 23                     
R08  23572775.273 1 126231086.73714        29.500    23572770.242 1
G31  24781611.500 1 130228109.37215        31.900                                                  
G12  20255766.156 1 106444800.803 8        50.900                                                  
G02  21932959.758 1 115258566.540 7        46.600                                                  
R06  23712641.516 1 126535165.140 6        36.100    23712639.586 1
R07  22678457.938 1 121399545.994 6        41.700    22678457.586 1
R12  21073963.328 1 112573322.105 7        47.300    21073962.879 1
G05  21661070.594 1 113829741.947 7        47.300                                                  
R22  21365352.180 1 114049609.959 7        44.900    21365350.469 1
R23  20074375.219 1 107384394.126 8        49.600    20074373.734 1
G06  23990093.547 1 126068766.284 6        39.800    23990104.551 1  94142374.275 7        46.400  
R14  22680046.516 1 120897410.176 5        35.700    22680045.730 1
R24  22328938.750 1 119402743.787 7        43.900    22328939.156 1
G24  24864704.195 1 130664988.465 5        34.900    24864718.926 1  97574481.048 7        44.900  
R13  19786307.109 1 105657608.402 6        41.200    19786304.871 1
G25  20430785.336 1 107364458.814 8        48.800    20430795.621 1  80174878.594 9        54.900  
G29  22199815.570 1 116660860.391 7        45.800                                                  
E13  24289184.086 1 127640576.431 8        48.900    24289188.277 1  95316063.296 8        50.300  
E01  24461684.484 1 128547040.042 8        51.800    24461689.012 1  95992940.354 8        51.300  
E21  24097959.844 1 126635689.747 8        52.500    24097965.094 1  94565660.609 8        51.300  
E33  27223789.680 1 143061992.455 7        42.500    27223794.828 1 106832026.442 6        41.900  
E27  27497456.305 1 144500088.018 6        39.700    27497464.512 1 107905926.978 6        40.900  
E15  28359976.586 1 149032707.190 6        37.600    28359983.602 1 111290699.501 6        37.000  
> 2020 05 14 22 58 30.0000000  0 23                     
R08  23552693.617 1 126123567.346 5        34.500    23552693.348 1
G31  24773263.664 1 130184244.092 5        30.300                                                  
G12  20261940.664 1 106477250.422 8        50.800                                                  
G02  21944792.242 1 115320742.665 7        46.900                                                  
R06  23720090.391 1 126574921.308 5        35.400    23720090.348 1
R07  22669038.547 1 121349105.305 7        42.500    22669035.801 1
R12  21094992.695 1 112685660.371 8        48.400    21094992.543 1
G05  21649766.516 1 113770338.409 7        47.800                                                  
R22  21379459.445 1 114124910.099 7        46.000    21379458.000 1
R23  20070938.820 1 107366013.947 8        50.200    20070938.371 1
G06  24008811.094 1 126167131.684 6        38.400    24008822.344 1  94215828.934 7        46.600  
R14  22660094.680 1 120791058.348 6        36.300    22660094.918 1
R24  22315528.742 1 119331032.249 7        44.500    22315528.227 1
G24  24882538.227 1 130758704.508 5        35.300    24882551.969 1  97644463.674 7        44.100  
R13  19786268.383 1 105657398.954 6        41.300    19786265.535 1
G25  20425591.625 1 107337162.849 8        48.700    20425601.453 1  80154495.238 9        55.000  
G29  22188375.711 1 116600746.002 7        45.800                                                  
E13  24298601.250 1 127690063.705 8        49.200    24298605.629 1  95353018.062 8        50.700  
E01  24455448.008 1 128514267.728 8        50.500    24455452.551 1  95968467.511 8        51.400  
E21  24107782.211 1 126687304.419 8        53.200    24107786.828 1  94604204.010 8        51.300  
E33  27211472.453 1 142997271.826 7        42.400    27211479.762 1 106783696.170 7        43.200  
E27  27515162.203 1 144593128.730 6        39.700    27515169.555 1 107975405.285 6        41.800  
E15  28373892.055 1 149105835.006 5        35.700    28373899.430 1 111345307.925 5        35.700  
> 2020 05 14 22 59 00.0000000  0 22                     
G31  24765012.758 1 130140858.529 5        32.200                                                  
G12  20268214.758 1 106510222.323 8        50.800                                                  
G02  21956661.453 1 115383113.793 7        47.700                                                  
R06  23727667.742 1 126615354.550 5        34.800    23727666.016 1
R07  22659725.984 1 121299267.734 6        41.400    22659724.313 1
R12  21116102.156 1 112798421.062 8        48.600    21116102.184 1
G05  21638554.813 1 113711419.319 7        47.800                                                  
R22  21393578.195 1 114200281.563 7        46.200    21393576.797 1
R23  20067562.430 1 107347950.323 8        50.900    20067561.043 1
G06  24027539.219 1 126265548.822 6        39.000    24027550.289 1  94289322.218 7        46.900  
R14  22640223.195 1 120685125.616 6        37.100    22640222.477 1
R24  22302162.734 1 119259557.483 7        44.600    22302162.629 1
G24  24900355.227 1 130852324.92816        36.500    24900368.359 1  97714374.864 7        45.100  
R13  19786384.523 1 105658021.827 6        41.800    19786382.680 1
G25  20420496.180 1 107310386.730 8        48.800    20420506.297 1  80134500.089 9        55.100  
G29  22176959.070 1 116540752.228 7        46.300                                                  
E13  24308038.102 1 127739654.553 8        49.300    24308042.098 1  95390050.173 8        50.900  
E01  24449282.375 1 128481866.551 8        50.700    24449286.773 1  95944271.843 8        51.800  
E21  24117670.695 1 126739271.024 8        52.500    24117675.734 1  94643010.219 8        51.400  
E33  27199183.703 1 142932691.742 7        42.600    27199190.148 1 106735470.885 7        43.000  
E27  27532879.656 1 144686233.624 6        40.400    27532887.328 1 108044931.509 6        41.400  
E15  28387792.586 1 149178887.590 6        37.700    28387800.914 1 111399860.139 6        38.100  
> 2020 05 14 22 59 30.0000000  0 22                     
G31  24756844.359 1 130097954.380 4        29.900                                                  
G12  20274589.227 1 106543716.706 8        51.100                                                  
G02  21968566.633 1 115445678.529 7        46.800                                                  
R06  23735373.008 1 126656463.322 6        36.800    23735370.313 1
R07  22650529.984 1 121250036.671 7        42.500    22650528.469 1
R12  21137289.539 1 112911600.621 8        48.900    21137289.551 1
G05  21627435.547 1 113652987.357 7        47.900                                                  
R22  21407712.313 1 114275723.536 7        45.800    21407710.289 1
R23  20064245.039 1 107330202.057 8        51.300    20064243.605 1
G06  24046278.094 1 126364016.235 6        40.200    24046288.805 1  94362853.053 7        47.700  
R14  22620430.023 1 120579616.427 6        36.600    22620429.445 1
R24  22288840.414 1 119188319.654 7        44.500    22288840.371 1
G24  24918149.586 1 130945848.076 5        34.800    24918165.992 1  97784213.392 7        45.600  
R13  19786656.398 1 105659477.634 6        41.400    19786655.332 1
G25  20415500.398 1 107284132.432 8        49.300    20415510.273 1  80114894.603 9        55.100  
G29  22165566.570 1 116480879.730 7        46.700                                                  
E13  24317494.664 1 127789348.344 8        48.200    24317498.465 1  95427159.158 8        51.000  
E01  24443187.344 1 128449838.141 8        50.500    24443191.863 1  95920354.528 8        51.800  
E21  24127626.766 1 126791589.160 8        52.500    24127631.570 1  94682078.941 8        51.800  
E33  27186922.328 1 142868252.722 7        43.300    27186927.172 1 106687350.933 7        42.200  
E27  27550608.438 1 144779401.576 6        39.800    27550616.262 1 108114504.906 6        40.400  
E15  28401680.922 1 149251864.556 5        35.500    28401687.703 1 111454355.945 5        35.700  
> 2020 05 14 23 00 00.0000000  0 22                     
G31  24748772.195 1 130055532.894 5        31.600                                                  
G12  20281062.445 1 106577733.698 8        51.200                                                  
G02  21980508.945 1 115508435.317 7        46.700                                                  
R06  23743202.664 1 126698246.736 6        36.500    23743201.301 1
R07  22641445.250 1 121201416.057 6        41.600    22641445.078 1
R12  21158555.531 1 113025195.186 8        48.200    21158554.750 1
G05  21616409.570 1 113595045.502 7        47.500                                                  
R22  21421858.227 1 114351234.615 7        46.500    21421856.250 1
R23  20060985.891 1 107312768.746 8        50.800    20060984.363 1
G06  24065025.734 1 126462532.329 6        38.800    24065035.148 1  94436420.248 7        47.100  
R14  22600717.133 1 120474535.091 6        36.800    22600716.293 1
R24  22275563.336 1 119117319.217 7        44.400    22275562.797 1
G24  24935927.852 1 131039271.29515        33.500    24935942.816 1  97853977.335 7        45.100  
R13  19787086.078 1 105661766.987 6        41.500    19787083.945 1
G25  20410603.406 1 107258401.726 8        49.100    20410613.813 1  80095680.122 9        55.100  
G29  22154196.102 1 116421129.339 7        45.800                                                  
E13  24326970.664 1 127839144.295 8        49.000    24326974.527 1  95464344.441 8        51.000  
E01  24437163.664 1 128418184.044 8        51.000    24437168.293 1  95896716.733 8        51.300  
E21  24137649.008 1 126844258.233 8        53.400    24137654.238 1  94721409.704 8        51.500  
E33  27174686.906 1 142803955.237 7        43.200    27174693.430 1 106639336.629 7        43.300  
E27  27568350.703 1 144872631.586 6        41.600    27568357.504 1 108184124.606 6        41.100  
E15  28415554.031 1 149324766.238 6        36.800    28415561.371 1 111508795.478 5        35.600  
